[{"skn":"2","name":"MANUKA 2","observer":"COOP","network":"COOP","island":"BI","elevation_m":"534","lat":"19.10866032","lon":"-155.8255447","ncei_id":"USC00516134","nws_id":"NA","nesdis_id":"NA","scan_id":"NA","smart_node_rf_id":"NA","dataset":"rfs_11_27_19"},{"skn":"2.1","name":"KAHUKU MAUKA","observer":"COOP","network":"COOP","island":"BI","elevation_m":"957","lat":"19.1089","lon":"-155.7467","ncei_id":"USC00512566","nws_id":"NA","nesdis_id":"NA","scan_id":"NA","smart_node_rf_id":"NA","dataset":"rfs_11_27_19"},{"skn":"2.32","name":"SOUTH KONA 2 2.32","observer":"COOP","network":"COOP","island":"BI","elevation_m":"647","lat":"19.10778","lon":"-155.78944","ncei_id":"USC00518652","nws_id":"NA","nesdis_id":"NA","scan_id":"NA","smart_node_rf_id":"NA","dataset":"rfs_11_27_19"},{"skn":"2.34","name":"MILOLII 2.34","observer":"COOP","network":"COOP","island":"BI","elevation_m":"280","lat":"19.186302","lon":"-155.886763","ncei_id":"USC00516304","nws_id":"NA","nesdis_id":"NA","scan_id":"NA","smart_node_rf_id":"NA","dataset":"rfs_11_27_19"},{"skn":"2.35","name":"HONOMALINO 2.35","observer":"COOP","network":"COOP","island":"BI","elevation_m":"610","lat":"19.201","lon":"-155.843","ncei_id":"USC00511922","nws_id":"NA","nesdis_id":"NA","scan_id":"NA","smart_node_rf_id":"NA","dataset":"rfs_11_27_19"},{"skn":"2.36","name":"KAPUA 2.36","observer":"COOP","network":"COOP","island":"BI","elevation_m":"533","lat":"19.14472","lon":"-155.84944","ncei_id":"USC00513376","nws_id":"NA","nesdis_id":"NA","scan_id":"NA","smart_node_rf_id":"NA","dataset":"rfs_11_27_19"},{"skn":"2.9","name":"CAPTAIN COOK 2.9 SSE","observer":"CoCoRaHS","network":"CoCoRaHS","island":"BI","elevation_m":"238","lat":"19.4594","lon":"-155.8938","ncei_id":"US1HIHI0019","nws_id":"NA","nesdis_id":"NA","scan_id":"NA","smart_node_rf_id":"NA","dataset":"rfs_11_27_19"},{"skn":"3.11","name":"MAUKA RESERVOIR 3.11","observer":"COOP","network":"COOP","island":"BI","elevation_m":"1521","lat":"19.1618","lon":"-155.6695","ncei_id":"USC00516144","nws_id":"NA","nesdis_id":"NA","scan_id":"NA","smart_node_rf_id":"NA","dataset":"rfs_11_27_19"},{"skn":"3.22","name":"HAWAIIAN OCEAN VIEW 4.7 NNE","observer":"CoCoRaHS","network":"CoCoRaHS","island":"BI","elevation_m":"1273","lat":"19.135","lon":"-155.747","ncei_id":"US1HIHI0035","nws_id":"NA","nesdis_id":"NA","scan_id":"NA","smart_node_rf_id":"NA","dataset":"rfs_11_27_19"},{"skn":"3.9","name":"LOWER KAHUKU CS","observer":"RAWS","network":"RAWS","island":"BI","elevation_m":"953.7192","lat":"19.10083333","lon":"-155.66972222","ncei_id":"NA","nws_id":"LKHH1","nesdis_id":"32D620C2","scan_id":"NA","smart_node_rf_id":"NA","dataset":"rfs_11_27_19"},{"skn":"4.12","name":"NAALEHU 4.6 WSW","observer":"CoCoRaHS","network":"CoCoRaHS","island":"BI","elevation_m":"391","lat":"19.0424","lon":"-155.6354","ncei_id":"US1HIHI0001","nws_id":"NA","nesdis_id":"NA","scan_id":"NA","smart_node_rf_id":"NA","dataset":"rfs_11_27_19"},{"skn":"4.13","name":"NAALEHU 5.0 WSW","observer":"CoCoRaHS","network":"CoCoRaHS","island":"BI","elevation_m":"436","lat":"19.0424","lon":"-155.643","ncei_id":"US1HIHI0010","nws_id":"NA","nesdis_id":"NA","scan_id":"NA","smart_node_rf_id":"NA","dataset":"rfs_11_27_19"},{"skn":"4.14","name":"NAALEHU 4.7 WSW","observer":"HI US","network":"CoCoRaHs","island":"CoCoRaHs","elevation_m":"BI","lat":"393.18","lon":"19.0421","ncei_id":"-155.6371","nws_id":"US1HIHI0057","nesdis_id":"NA","scan_id":"NA","smart_node_rf_id":"NA","dataset":"rfs_11_27_19"},{"skn":"5.1","name":"KIOLAKAA A AND F 6","observer":"COOP","network":"COOP","island":"BI","elevation_m":"317","lat":"19.01361","lon":"-155.66194","ncei_id":"USC00513054","nws_id":"NA","nesdis_id":"NA","scan_id":"NA","smart_node_rf_id":"NA","dataset":"rfs_11_27_19"},{"skn":"6","name":"KIOLAKAA A&F 6","observer":"COOP","network":"COOP","island":"BI","elevation_m":"587","lat":"19.07032619","lon":"-155.6355484","ncei_id":"USC00514625","nws_id":"NA","nesdis_id":"NA","scan_id":"NA","smart_node_rf_id":"NA","dataset":"rfs_11_27_19"},{"skn":"6.2","name":"NAALEHU 5.7 W","observer":"CoCoRaHS","network":"CoCoRaHS","island":"BI","elevation_m":"679","lat":"19.0732","lon":"-155.6632","ncei_id":"US1HIHI0012","nws_id":"NA","nesdis_id":"NA","scan_id":"NA","smart_node_rf_id":"NA","dataset":"rfs_11_27_19"},{"skn":"6.3","name":"KAHUKU MILL CAMP 6.3","observer":"COOP","network":"COOP","island":"BI","elevation_m":"668","lat":"19.0654","lon":"-155.6781","ncei_id":"USC00512568","nws_id":"NA","nesdis_id":"NA","scan_id":"NA","smart_node_rf_id":"NA","dataset":"rfs_11_27_19"},{"skn":"9.2","name":"Nene Cabin","observer":"RAWS","network":"RAWS","island":"BI","elevation_m":"710.4888","lat":"19.34805556","lon":"-155.1258333","ncei_id":"NA","nws_id":"AHMH1","nesdis_id":"32D64524","scan_id":"NA","smart_node_rf_id":"NA","dataset":"rfs_11_27_19"},{"skn":"12.15","name":"SEA MOUNTAIN 12.15","observer":"COOP","network":"COOP","island":"BI","elevation_m":"21","lat":"19.13310292","lon":"-155.5152744","ncei_id":"USC00518600","nws_id":"NA","nesdis_id":"NA","scan_id":"NA","smart_node_rf_id":"NA","dataset":"rfs_11_27_19"},{"skn":"14","name":"NAALEHU 14","observer":"COOP","network":"COOP","island":"BI","elevation_m":"206","lat":"19.06032754","lon":"-155.5855501","ncei_id":"USC00516588","nws_id":"NA","nesdis_id":"NA","scan_id":"NA","smart_node_rf_id":"NA","dataset":"rfs_11_27_19"},{"skn":"21","name":"Pahala","observer":"NWS","network":"HydroNet-UaNet","island":"BI","elevation_m":"346.8624","lat":"19.2042999","lon":"-155.4872","ncei_id":"USC00517421","nws_id":"PPLH1","nesdis_id":"B16084B2","scan_id":"NA","smart_node_rf_id":"NA","dataset":"rfs_11_27_19"},{"skn":"21.3","name":"PAHALA MAUKA 21.3","observer":"COOP","network":"COOP","island":"BI","elevation_m":"332","lat":"19.20667","lon":"-155.48861","ncei_id":"USC00517437","nws_id":"NA","nesdis_id":"NA","scan_id":"NA","smart_node_rf_id":"NA","dataset":"rfs_11_27_19"},{"skn":"21.4","name":"HAWAIIAN OCEAN VIEW 1.7 NNE","observer":"HI US","network":"CoCoRaHs","island":"CoCoRaHs","elevation_m":"BI","lat":"733.03","lon":"19.0908","ncei_id":"-155.7552","nws_id":"US1HIHI0059","nesdis_id":"NA","scan_id":"NA","smart_node_rf_id":"NA","dataset":"rfs_11_27_19"},{"skn":"23","name":"KAHUKU","observer":"RAWS","network":"RAWS","island":"BI","elevation_m":"1796.4912","lat":"19.23222222","lon":"-155.78","ncei_id":"NA","nws_id":"KRCH1","nesdis_id":"32639544","scan_id":"NA","smart_node_rf_id":"NA","dataset":"rfs_11_27_19"},{"skn":"24.1","name":"OPIHIHALE 2 24.1","observer":"COOP","network":"COOP","island":"BI","elevation_m":"396","lat":"19.27032215","lon":"-155.8738768","ncei_id":"USC00517166","nws_id":"NA","nesdis_id":"NA","scan_id":"NA","smart_node_rf_id":"NA","dataset":"rfs_11_27_19"},{"skn":"24.4","name":"KAOHE MAKAI 24.4","observer":"COOP","network":"COOP","island":"BI","elevation_m":"37","lat":"19.317","lon":"-155.883","ncei_id":"USC00513146","nws_id":"NA","nesdis_id":"NA","scan_id":"NA","smart_node_rf_id":"NA","dataset":"rfs_11_27_19"},{"skn":"26.2","name":"KEALAKEKUA 26.2","observer":"COOP","network":"COOP","island":"BI","elevation_m":"442","lat":"19.48975723","lon":"-155.9122125","ncei_id":"USC00513977","nws_id":"NA","nesdis_id":"NA","scan_id":"NA","smart_node_rf_id":"NA","dataset":"rfs_11_27_19"},{"skn":"27","name":"HONAUNAU 27","observer":"COOP","network":"COOP","island":"BI","elevation_m":"332","lat":"19.4403158","lon":"-155.8788789","ncei_id":"USC00511665","nws_id":"NA","nesdis_id":"NA","scan_id":"NA","smart_node_rf_id":"NA","dataset":"rfs_11_27_19"},{"skn":"27.4","name":"PUUHONUA O HONA 27.4","observer":"COOP","network":"COOP","island":"BI","elevation_m":"5","lat":"19.4184","lon":"-155.9112","ncei_id":"USC00518552","nws_id":"NA","nesdis_id":"NA","scan_id":"NA","smart_node_rf_id":"NA","dataset":"rfs_11_27_19"},{"skn":"27.6","name":"Honaunau No. 2","observer":"NWS","network":"HydroNet-UaNet","island":"BI","elevation_m":"398.0688","lat":"19.4629002","lon":"-155.882399999999","ncei_id":"NA","nws_id":"HAUH1","nesdis_id":"15D12742","scan_id":"NA","smart_node_rf_id":"NA","dataset":"rfs_11_27_19"},{"skn":"28","name":"NAPOOPOO 28","observer":"COOP","network":"COOP","island":"BI","elevation_m":"122","lat":"19.46864784","lon":"-155.9055458","ncei_id":"USC00516697","nws_id":"NA","nesdis_id":"NA","scan_id":"NA","smart_node_rf_id":"NA","dataset":"rfs_11_27_19"},{"skn":"28.5","name":"CAPTAIN COOK 3.4 SSE","observer":"CoCoRaHS","network":"CoCoRaHS","island":"BI","elevation_m":"385","lat":"19.4572","lon":"-155.8794","ncei_id":"US1HIHI0045","nws_id":"NA","nesdis_id":"NA","scan_id":"NA","smart_node_rf_id":"NA","dataset":"rfs_11_27_19"},{"skn":"29","name":"KAAWALOA 29","observer":"COOP","network":"COOP","island":"BI","elevation_m":"409","lat":"19.4919792","lon":"-155.9172124","ncei_id":"USC00512327","nws_id":"NA","nesdis_id":"NA","scan_id":"NA","smart_node_rf_id":"NA","dataset":"rfs_11_27_19"},{"skn":"29.12","name":"Kealakekua","observer":"NWS","network":"HydroNet-UaNet","island":"BI","elevation_m":"537.972","lat":"19.5181007","lon":"-155.915899999999","ncei_id":"NA","nws_id":"KLEH1","nesdis_id":"81708572","scan_id":"NA","smart_node_rf_id":"NA","dataset":"rfs_11_27_19"},{"skn":"34","name":"Kapapala Ranch","observer":"NWS","network":"HydroNet-UaNet","island":"BI","elevation_m":"638.556","lat":"19.2754993","lon":"-155.4514","ncei_id":"USC00513300","nws_id":"KAYH1","nesdis_id":"B16097C4","scan_id":"NA","smart_node_rf_id":"NA","dataset":"rfs_11_27_19"},{"skn":"36.3","name":"KAPAPALA RANCH","observer":"S&PF","network":"RAWS","island":"BI","elevation_m":"1081","lat":"19.25811","lon":"-155.441781","ncei_id":"NA","nws_id":"KPRH1","nesdis_id":"AA10E258","scan_id":"NA","smart_node_rf_id":"NA","dataset":"rfs_11_27_19"},{"skn":"38.8","name":"KEALAKOMO 38.8","observer":"COOP","network":"COOP","island":"BI","elevation_m":"84","lat":"19.29472","lon":"-155.14444","ncei_id":"USC00514080","nws_id":"NA","nesdis_id":"NA","scan_id":"NA","smart_node_rf_id":"NA","dataset":"rfs_11_27_19"},{"skn":"38.9","name":"KAELAKOMO","observer":"RAWS","network":"RAWS","island":"BI","elevation_m":"29.5656","lat":"19.29277778","lon":"-155.1075","ncei_id":"NA","nws_id":"KMOH1","nesdis_id":"32807432","scan_id":"NA","smart_node_rf_id":"NA","dataset":"rfs_11_27_19"},{"skn":"39","name":"Mauna Loa Observatory","observer":"ESRL/GMD","network":"ESRL/GMD","island":"BI","elevation_m":"3397","lat":"19.5362","lon":"-155.5763","ncei_id":"USC00516198","nws_id":"MOBH1","nesdis_id":"NA","scan_id":"NA","smart_node_rf_id":"NA","dataset":"rfs_11_27_19"},{"skn":"39.1","name":"Mauna Loa Upper","observer":"State","network":"STATE","island":"BI","elevation_m":"3341","lat":"19.53863295","lon":"-155.5722206","ncei_id":"NA","nws_id":"NA","nesdis_id":"NA","scan_id":"NA","smart_node_rf_id":"NA","dataset":"rfs_11_27_19"},{"skn":"39.2","name":"MAUNA LOA 5 NNE","observer":"USCRN","network":"USCRN","island":"BI","elevation_m":"3398","lat":"19.5354","lon":"-155.576","ncei_id":"USW00021514","nws_id":"MLBH1","nesdis_id":"CD07379A","scan_id":"NA","smart_node_rf_id":"NA","dataset":"rfs_11_27_19"},{"skn":"43.3","name":"PUHE CS","observer":"NPS","network":"RAWS","island":"BI","elevation_m":"34.126","lat":"20.025","lon":"-155.8211111","ncei_id":"NA","nws_id":"PHRH1","nesdis_id":"32D61558","scan_id":"NA","smart_node_rf_id":"NA","dataset":"rfs_11_27_19"},{"skn":"47","name":"KEMOKU LAVA FLOW","observer":"RAWS","network":"RAWS","island":"BI","elevation_m":"1706.88","lat":"19.47555556","lon":"-155.36277778","ncei_id":"USR0000HKEA","nws_id":"KKUH1","nesdis_id":"FA4447E8","scan_id":"NA","smart_node_rf_id":"NA","dataset":"rfs_11_27_19"},{"skn":"48","name":"PALI 2","observer":"NPS","network":"RAWS","island":"BI","elevation_m":"847.344","lat":"19.3175","lon":"-155.29222222","ncei_id":"USR0000HPAL","nws_id":"PLIH1","nesdis_id":"FA900222","scan_id":"NA","smart_node_rf_id":"NA","dataset":"rfs_11_27_19"},{"skn":"49","name":"KEAUMO","observer":"RAWS","network":"RAWS","island":"BI","elevation_m":"1682.496","lat":"19.47361111","lon":"-155.35888889","ncei_id":"USR0000HKMO","nws_id":"HKMO","nesdis_id":"NA","scan_id":"NA","smart_node_rf_id":"NA","dataset":"rfs_11_27_19"},{"skn":"54","name":"HAWAII VOLCNS NP HQ 54","observer":"COOP","network":"COOP","island":"BI","elevation_m":"1210","lat":"19.429741","lon":"-155.257146","ncei_id":"USC00511303","nws_id":"NA","nesdis_id":"NA","scan_id":"NA","smart_node_rf_id":"NA","dataset":"rfs_11_27_19"},{"skn":"54.2","name":"Glenwood","observer":"NWS","network":"HydroNet-UaNet","island":"BI","elevation_m":"802.2336","lat":"19.5076008","lon":"-155.1707","ncei_id":"USC00510744","nws_id":"GLNH1","nesdis_id":"NA","scan_id":"NA","smart_node_rf_id":"NA","dataset":"rfs_11_27_19"},{"skn":"54.8","name":"Thurston","observer":"HavoNet","network":"HavoNet","island":"BI","elevation_m":"1202","lat":"19.41528","lon":"-155.23833","ncei_id":"NA","nws_id":"NA","nesdis_id":"NA","scan_id":"NA","smart_node_rf_id":"NA","dataset":"rfs_11_27_19"},{"skn":"54.9","name":"Ola a","observer":"HavoNet","network":"HavoNet","island":"BI","elevation_m":"1040","lat":"19.47833","lon":"-155.215","ncei_id":"NA","nws_id":"NA","nesdis_id":"NA","scan_id":"NA","smart_node_rf_id":"NA","dataset":"rfs_11_27_19"},{"skn":"55.1","name":"VOLCANO 4.3 SSE","observer":"CoCoRaHS","network":"CoCoRaHS","island":"BI","elevation_m":"1059","lat":"19.4391","lon":"-155.2156","ncei_id":"US1HIHI0013","nws_id":"NA","nesdis_id":"NA","scan_id":"NA","smart_node_rf_id":"NA","dataset":"rfs_11_27_19"},{"skn":"55.3","name":"VOLCANO 4.4 S","observer":"CoCoRaHS","network":"CoCoRaHS","island":"BI","elevation_m":"1158","lat":"19.4338","lon":"-155.2417","ncei_id":"US1HIHI0040","nws_id":"NA","nesdis_id":"NA","scan_id":"NA","smart_node_rf_id":"NA","dataset":"rfs_11_27_19"},{"skn":"55.4","name":"GLENWOOD NO 2 55.4","observer":"COOP","network":"COOP","island":"BI","elevation_m":"671","lat":"19.52194","lon":"-155.14389","ncei_id":"USC00510746","nws_id":"NA","nesdis_id":"NA","scan_id":"NA","smart_node_rf_id":"NA","dataset":"rfs_11_27_19"},{"skn":"55.5","name":"MOUNTAIN VIEW 0.6 ESE","observer":"CoCoRaHS","network":"CoCoRaHS","island":"BI","elevation_m":"663","lat":"19.5179","lon":"-155.1402","ncei_id":"US1HIHI0042","nws_id":"NA","nesdis_id":"NA","scan_id":"NA","smart_node_rf_id":"NA","dataset":"rfs_11_27_19"},{"skn":"55.6","name":"VOLCANO 4.0","observer":"COOP","network":"COOP","island":"BI","elevation_m":"1194.8","lat":"19.441359","lon":"-155.2487445","ncei_id":"US1HIHI0071","nws_id":"NA","nesdis_id":"NA","scan_id":"NA","smart_node_rf_id":"NA","dataset":"rfs_11_27_19"},{"skn":"63","name":"KALOKO-HONOKOHAU","observer":"RAWS","network":"RAWS","island":"BI","elevation_m":"7.62","lat":"19.67277778","lon":"-156.02027778","ncei_id":"NA","nws_id":"KHOH1","nesdis_id":"FA667668","scan_id":"NA","smart_node_rf_id":"NA","dataset":"rfs_11_27_19"},{"skn":"65","name":"PAHOA 65","observer":"COOP","network":"COOP","island":"BI","elevation_m":"204","lat":"19.49197865","lon":"-154.9455586","ncei_id":"USC00517457","nws_id":"NA","nesdis_id":"NA","scan_id":"NA","smart_node_rf_id":"NA","dataset":"rfs_11_27_19"},{"skn":"65.4","name":"PAHOA 2.1 E","observer":"CoCoRaHS","network":"CoCoRaHS","island":"BI","elevation_m":"137","lat":"19.5043","lon":"-154.9165","ncei_id":"US1HIHI0003","nws_id":"NA","nesdis_id":"NA","scan_id":"NA","smart_node_rf_id":"NA","dataset":"rfs_11_27_19"},{"skn":"65.6","name":"KURTISTOWN 6.6 SSE","observer":"HI US","network":"CoCoRaHs","island":"CoCoRaHs","elevation_m":"BI","lat":"339.63","lon":"19.5021","ncei_id":"-155.029","nws_id":"US1HIHI0055","nesdis_id":"NA","scan_id":"NA","smart_node_rf_id":"NA","dataset":"rfs_11_27_19"},{"skn":"66.6","name":"PAHOA 3.3 SEE","observer":"COOP","network":"COOP","island":"BI","elevation_m":"254.2","lat":"19.459069","lon":"-154.921985","ncei_id":"US1HIHI0052","nws_id":"NA","nesdis_id":"NA","scan_id":"NA","smart_node_rf_id":"NA","dataset":"rfs_11_27_19"},{"skn":"67.12","name":"LAE APUKI 67.12","observer":"COOP","network":"COOP","island":"BI","elevation_m":"24","lat":"19.3918","lon":"-154.9313","ncei_id":"USC00515150","nws_id":"NA","nesdis_id":"NA","scan_id":"NA","smart_node_rf_id":"NA","dataset":"rfs_11_27_19"},{"skn":"67.13","name":"PAHOA 7.5 S","observer":"CoCoRaHS","network":"CoCoRaHS","island":"BI","elevation_m":"23","lat":"19.3918","lon":"-154.9313","ncei_id":"US1HIHI0008","nws_id":"NA","nesdis_id":"NA","scan_id":"NA","smart_node_rf_id":"NA","dataset":"rfs_11_27_19"},{"skn":"67.14","name":"PAHOA 3.0 SSE","observer":"HI US","network":"CoCoRaHs","island":"CoCoRaHs","elevation_m":"BI","lat":"284.69","lon":"19.4573","ncei_id":"-154.9338","nws_id":"US1HIHI0056","nesdis_id":"NA","scan_id":"NA","smart_node_rf_id":"NA","dataset":"rfs_11_27_19"},{"skn":"67.7","name":"PAHOA 2.7 SSE","observer":"CoCoRaHS","network":"CoCoRaHS","island":"BI","elevation_m":"259","lat":"19.4654","lon":"-154.927","ncei_id":"US1HIHI0051","nws_id":"NA","nesdis_id":"NA","scan_id":"NA","smart_node_rf_id":"NA","dataset":"rfs_11_27_19"},{"skn":"67.9","name":"KEAUOHANA 67.9","observer":"COOP","network":"COOP","island":"BI","elevation_m":"232","lat":"19.4132","lon":"-154.9522","ncei_id":"USC00514171","nws_id":"NA","nesdis_id":"NA","scan_id":"NA","smart_node_rf_id":"NA","dataset":"rfs_11_27_19"},{"skn":"68.12","name":"Kailua-K","observer":"NREL","network":"NREL","island":"BI","elevation_m":"4","lat":"19.728144","lon":"-156.058936","ncei_id":"NA","nws_id":"NA","nesdis_id":"NA","scan_id":"NA","smart_node_rf_id":"NA","dataset":"rfs_11_27_19"},{"skn":"68.13","name":"KE-AHOLE POINT 68.13","observer":"COOP","network":"COOP","island":"BI","elevation_m":"3","lat":"19.72779668","lon":"-156.0586039","ncei_id":"USC00513911","nws_id":"NA","nesdis_id":"NA","scan_id":"NA","smart_node_rf_id":"NA","dataset":"rfs_11_27_19"},{"skn":"68.14","name":"HONOKOHAU HARBOR 68.14","observer":"COOP","network":"COOP","island":"BI","elevation_m":"9","lat":"19.67944","lon":"-156.02333","ncei_id":"USC00511880","nws_id":"NA","nesdis_id":"NA","scan_id":"NA","smart_node_rf_id":"NA","dataset":"rfs_11_27_19"},{"skn":"68.2","name":"LANIHAU 68.2","observer":"COOP","network":"COOP","island":"BI","elevation_m":"466","lat":"19.66196803","lon":"-155.9588816","ncei_id":"USC00515330","nws_id":"NA","nesdis_id":"NA","scan_id":"NA","smart_node_rf_id":"NA","dataset":"rfs_11_27_19"},{"skn":"68.21","name":"KAILUA KONA KE AHOLE AIRPORT","observer":"NWS","network":"NWS","island":"BI","elevation_m":"27","lat":"19.73556","lon":"-156.04889","ncei_id":"USW00021510","nws_id":"HKO","nesdis_id":"NA","scan_id":"NA","smart_node_rf_id":"NA","dataset":"rfs_11_27_19"},{"skn":"68.22","name":"HOLUALOA 4.0 NW","observer":"CoCoRaHS","network":"CoCoRaHS","island":"BI","elevation_m":"416","lat":"19.6799","lon":"-155.9699","ncei_id":"US1HIHI0049","nws_id":"NA","nesdis_id":"NA","scan_id":"NA","smart_node_rf_id":"NA","dataset":"rfs_11_27_19"},{"skn":"69.22","name":"KALAOA 1.7","observer":"CoCoRaHS","network":"CoCoRaHS","island":"BI","elevation_m":"304.5","lat":"19.7238","lon":"-155.9926","ncei_id":"US1HIHI0006","nws_id":"NA","nesdis_id":"NA","scan_id":"NA","smart_node_rf_id":"NA","dataset":"rfs_11_27_19"},{"skn":"69.25","name":"Palamanui","observer":"HECO","network":"HIPPNET","island":"BI","elevation_m":"297","lat":"19.73756","lon":"-155.99582","ncei_id":"NA","nws_id":"NA","nesdis_id":"NA","scan_id":"NA","smart_node_rf_id":"NA","dataset":"rfs_11_27_19"},{"skn":"69.26","name":"KALAOA 2.2 ESE","observer":"CoCoRaHS","network":"CoCoRaHS","island":"BI","elevation_m":"398","lat":"19.7189","lon":"-155.9859","ncei_id":"US1HIHI0038","nws_id":"NA","nesdis_id":"NA","scan_id":"NA","smart_node_rf_id":"NA","dataset":"rfs_11_27_19"},{"skn":"70","name":"HOLUALOA 70","observer":"COOP","network":"COOP","island":"BI","elevation_m":"982","lat":"19.6347","lon":"-155.9078","ncei_id":"USC00511557","nws_id":"NA","nesdis_id":"NA","scan_id":"NA","smart_node_rf_id":"NA","dataset":"rfs_11_27_19"},{"skn":"70.16","name":"Waiaha Stream","observer":"NWS","network":"HydroNet-UaNet","island":"BI","elevation_m":"460.5528","lat":"19.6331997","lon":"-155.9486","ncei_id":"NA","nws_id":"WIHH1","nesdis_id":"9321011E","scan_id":"NA","smart_node_rf_id":"NA","dataset":"rfs_11_27_19"},{"skn":"70.7","name":"Puuwaawaa","observer":"HECO","network":"HIPPNET","island":"BI","elevation_m":"1659","lat":"19.72544","lon":"-155.87389","ncei_id":"NA","nws_id":"NA","nesdis_id":"NA","scan_id":"NA","smart_node_rf_id":"NA","dataset":"rfs_11_27_19"},{"skn":"71","name":"HONUAULA 71","observer":"COOP","network":"COOP","island":"BI","elevation_m":"1905","lat":"19.671","lon":"-155.8764","ncei_id":"USC00512047","nws_id":"NA","nesdis_id":"NA","scan_id":"NA","smart_node_rf_id":"NA","dataset":"rfs_11_27_19"},{"skn":"73.2","name":"KAINALIU 73.2","observer":"COOP","network":"COOP","island":"BI","elevation_m":"457","lat":"19.53364321","lon":"-155.9255461","ncei_id":"USC00512751","nws_id":"NA","nesdis_id":"NA","scan_id":"NA","smart_node_rf_id":"NA","dataset":"rfs_11_27_19"},{"skn":"73.29","name":"Kainaliu Upper","observer":"NWS","network":"HydroNet-UaNet","island":"BI","elevation_m":"713.232","lat":"19.5310993","lon":"-155.9066","ncei_id":"NA","nws_id":"KNUH1","nesdis_id":"NA","scan_id":"NA","smart_node_rf_id":"NA","dataset":"rfs_11_27_19"},{"skn":"73.34","name":"Kainaliu","observer":"SCAN","network":"SCAN","island":"BI","elevation_m":"416","lat":"19.53333333","lon":"-155.9333333","ncei_id":"NA","nws_id":"NA","nesdis_id":"NA","scan_id":"2096","smart_node_rf_id":"NA","dataset":"rfs_11_27_19"},{"skn":"74.8","name":"KEALAKEKUA 4 74.8","observer":"COOP","network":"COOP","island":"BI","elevation_m":"433","lat":"19.5106","lon":"-155.9217","ncei_id":"USC00513987","nws_id":"NA","nesdis_id":"NA","scan_id":"NA","smart_node_rf_id":"NA","dataset":"rfs_11_27_19"},{"skn":"75.1","name":"PTA KIPUKA ALALA","observer":"NPS","network":"RAWS","island":"BI","elevation_m":"1641.348","lat":"19.66694444","lon":"-155.70777778","ncei_id":"USR0000HPTK","nws_id":"PKAH1","nesdis_id":"32666200","scan_id":"NA","smart_node_rf_id":"NA","dataset":"rfs_11_27_19"},{"skn":"76","name":"KULANI MAUKA 76","observer":"COOP","network":"COOP","island":"BI","elevation_m":"2530","lat":"19.58363059","lon":"-155.4538895","ncei_id":"USC00515018","nws_id":"NA","nesdis_id":"NA","scan_id":"NA","smart_node_rf_id":"NA","dataset":"rfs_11_27_19"},{"skn":"79","name":"KULANI CAMP 79","observer":"COOP","network":"COOP","island":"BI","elevation_m":"1576","lat":"19.54863532","lon":"-155.3005575","ncei_id":"USC00515011","nws_id":"NA","nesdis_id":"NA","scan_id":"NA","smart_node_rf_id":"NA","dataset":"rfs_11_27_19"},{"skn":"79.6","name":"Kulani NWR","observer":"NWS","network":"HydroNet-UaNet","island":"BI","elevation_m":"1623.3648","lat":"19.5543995","lon":"-155.308899999999","ncei_id":"NA","nws_id":"KNWH1","nesdis_id":"NA","scan_id":"NA","smart_node_rf_id":"NA","dataset":"rfs_11_27_19"},{"skn":"83","name":"QuarryRainGageatSaddleRd","observer":"USGS","network":"USGS","island":"BI","elevation_m":"1286.256","lat":"19.68586111","lon":"-155.2942222","ncei_id":"NA","nws_id":"SDQH1","nesdis_id":"DDF6B6E4","scan_id":"NA","smart_node_rf_id":"NA","dataset":"rfs_11_27_19"},{"skn":"85.2","name":"Waiakea Uka","observer":"NWS","network":"HydroNet-UaNet","island":"BI","elevation_m":"303.8856","lat":"19.6585999","lon":"-155.1277","ncei_id":"USC00519084","nws_id":"WKAH1","nesdis_id":"NA","scan_id":"NA","smart_node_rf_id":"NA","dataset":"rfs_11_27_19"},{"skn":"87","name":"HILO INTERNATIONAL AIRPORT 87","observer":"NWS","network":"HydroNet-UaNet","island":"BI","elevation_m":"11.6","lat":"19.7191","lon":"-155.053","ncei_id":"USW00021504","nws_id":"HTO","nesdis_id":"NA","scan_id":"NA","smart_node_rf_id":"NA","dataset":"rfs_11_27_19"},{"skn":"87.4","name":"HILO ENE","observer":"CoCoRaHS","network":"CoCoRaHS","island":"BI","elevation_m":"24","lat":"19.6996","lon":"-155.0728","ncei_id":"US1HIHI0016","nws_id":"NA","nesdis_id":"NA","scan_id":"NA","smart_node_rf_id":"NA","dataset":"rfs_11_27_19"},{"skn":"87.5","name":"HILO 5 S","observer":"USCRN","network":"USCRN","island":"BI","elevation_m":"189","lat":"19.645","lon":"-155.0827","ncei_id":"USW00021515","nws_id":"NA","nesdis_id":"NA","scan_id":"NA","smart_node_rf_id":"NA","dataset":"rfs_11_27_19"},{"skn":"87.6","name":"HILO 0.7 E","observer":"CoCoRaHS","network":"CoCoRaHS","island":"BI","elevation_m":"42","lat":"19.697","lon":"-155.076","ncei_id":"US1HIHI0024","nws_id":"NA","nesdis_id":"NA","scan_id":"NA","smart_node_rf_id":"NA","dataset":"rfs_11_27_19"},{"skn":"87.8","name":"HILO 0.4 SW","observer":"CoCoRaHS","network":"CoCoRaHS","island":"BI","elevation_m":"107","lat":"19.692","lon":"-155.0925","ncei_id":"US1HIHI0039","nws_id":"NA","nesdis_id":"NA","scan_id":"NA","smart_node_rf_id":"NA","dataset":"rfs_11_27_19"},{"skn":"87.9","name":"IPIF","observer":"HECO","network":"HIPPNET","island":"BI","elevation_m":"111","lat":"19.69748","lon":"-155.0954","ncei_id":"NA","nws_id":"NA","nesdis_id":"NA","scan_id":"NA","smart_node_rf_id":"NA","dataset":"rfs_11_27_19"},{"skn":"88.1","name":"KAUMANA 88.1","observer":"COOP","network":"COOP","island":"BI","elevation_m":"343","lat":"19.68362898","lon":"-155.1405634","ncei_id":"USC00513510","nws_id":"NA","nesdis_id":"NA","scan_id":"NA","smart_node_rf_id":"NA","dataset":"rfs_11_27_19"},{"skn":"88.2","name":"WAIAKEA SCD 88.2","observer":"COOP","network":"COOP","island":"BI","elevation_m":"287","lat":"19.65529741","lon":"-155.1205634","ncei_id":"USC00519025","nws_id":"NA","nesdis_id":"NA","scan_id":"NA","smart_node_rf_id":"NA","dataset":"rfs_11_27_19"},{"skn":"88.31","name":"HILO 3.0","observer":"COOP","network":"COOP","island":"BI","elevation_m":"242","lat":"19.71414","lon":"-155.12934","ncei_id":"US1HIHI0053","nws_id":"NA","nesdis_id":"NA","scan_id":"NA","smart_node_rf_id":"NA","dataset":"rfs_11_27_19"},{"skn":"89.11","name":"Piihonua","observer":"NWS","network":"HydroNet-UaNet","island":"BI","elevation_m":"296.8752","lat":"19.7098007","lon":"-155.1395","ncei_id":"USC00518053","nws_id":"PIIH1","nesdis_id":"NA","scan_id":"NA","smart_node_rf_id":"NA","dataset":"rfs_11_27_19"},{"skn":"89.13","name":"KAIWIKI HOMESTEAD 89.11","observer":"HI US","network":"COOP","island":"COOP","elevation_m":"BI","lat":"379.67","lon":"19.7509","ncei_id":"-155.1362","nws_id":"USC00512802","nesdis_id":"NA","scan_id":"NA","smart_node_rf_id":"NA","dataset":"rfs_11_27_19"},{"skn":"89.13","name":"HILO 1.8 WNW","observer":"COOP","network":"COOP","island":"BI","elevation_m":"151.5","lat":"19.70799","lon":"-155.11258","ncei_id":"US1HIHI0066","nws_id":"NA","nesdis_id":"NA","scan_id":"NA","smart_node_rf_id":"NA","dataset":"rfs_11_27_19"},{"skn":"89.2","name":"AMAUULU 89.2","observer":"COOP","network":"COOP","island":"BI","elevation_m":"390","lat":"19.73529295","lon":"-155.1455638","ncei_id":"USC00510150","nws_id":"NA","nesdis_id":"NA","scan_id":"NA","smart_node_rf_id":"NA","dataset":"rfs_11_27_19"},{"skn":"90.2","name":"HILO 1.8 NNW","observer":"CoCoRaHS","network":"CoCoRaHS","island":"BI","elevation_m":"46","lat":"19.7217","lon":"-155.0948","ncei_id":"US1HIHI0026","nws_id":"NA","nesdis_id":"NA","scan_id":"NA","smart_node_rf_id":"NA","dataset":"rfs_11_27_19"},{"skn":"91","name":"MOUNTAIN VIEW 91","observer":"COOP","network":"COOP","island":"BI","elevation_m":"463","lat":"19.5487","lon":"-155.1101","ncei_id":"USC00516552","nws_id":"NA","nesdis_id":"NA","scan_id":"NA","smart_node_rf_id":"NA","dataset":"rfs_11_27_19"},{"skn":"91.11","name":"PUNA MACADAMIA O 91.11","observer":"COOP","network":"COOP","island":"BI","elevation_m":"244","lat":"19.61861","lon":"-155.08667","ncei_id":"USC00518315","nws_id":"NA","nesdis_id":"NA","scan_id":"NA","smart_node_rf_id":"NA","dataset":"rfs_11_27_19"},{"skn":"91.12","name":"HAWAIIAN BEACHES 91.12","observer":"COOP","network":"COOP","island":"BI","elevation_m":"88","lat":"19.533","lon":"-154.917","ncei_id":"USC00511300","nws_id":"NA","nesdis_id":"NA","scan_id":"NA","smart_node_rf_id":"NA","dataset":"rfs_11_27_19"},{"skn":"91.13","name":"KEAAU BEACH 91.13","observer":"COOP","network":"COOP","island":"BI","elevation_m":"5","lat":"19.641","lon":"-154.981","ncei_id":"USC00513868","nws_id":"NA","nesdis_id":"NA","scan_id":"NA","smart_node_rf_id":"NA","dataset":"rfs_11_27_19"},{"skn":"91.14","name":"KURTISTOWN 91.14","observer":"COOP","network":"COOP","island":"BI","elevation_m":"223","lat":"19.59","lon":"-155.083","ncei_id":"USC00515102","nws_id":"NA","nesdis_id":"NA","scan_id":"NA","smart_node_rf_id":"NA","dataset":"rfs_11_27_19"},{"skn":"91.15","name":"Mountain View","observer":"NWS","network":"HydroNet-UaNet","island":"BI","elevation_m":"346.5576","lat":"19.5674992","lon":"-155.0841","ncei_id":"NA","nws_id":"MTVH1","nesdis_id":"NA","scan_id":"NA","smart_node_rf_id":"NA","dataset":"rfs_11_27_19"},{"skn":"91.16","name":"MOUNTAIN VIEW 4.5 NNE","observer":"HI US","network":"CoCoRaHs","island":"CoCoRaHs","elevation_m":"BI","lat":"482.19","lon":"19.5808","ncei_id":"-155.1216","nws_id":"US1HIHI0060","nesdis_id":"NA","scan_id":"NA","smart_node_rf_id":"NA","dataset":"rfs_11_27_19"},{"skn":"91.17","name":"PAHOA BEACON 91.9","observer":"HI US","network":"COOP","island":"COOP","elevation_m":"BI","lat":"148.5","lon":"19.5407","ncei_id":"-154.9728","nws_id":"USC00517460","nesdis_id":"NA","scan_id":"NA","smart_node_rf_id":"NA","dataset":"rfs_11_27_19"},{"skn":"91.6","name":"KURTISTOWN 6.1 SSE","observer":"CoCoRaHS","network":"CoCoRaHS","island":"BI","elevation_m":"295","lat":"19.5145","lon":"-155.0206","ncei_id":"US1HIHI0037","nws_id":"NA","nesdis_id":"NA","scan_id":"NA","smart_node_rf_id":"NA","dataset":"rfs_11_27_19"},{"skn":"91.7","name":"MOUNTAIN VIEW 5.5 SE","observer":"CoCoRaHS","network":"CoCoRaHS","island":"BI","elevation_m":"547","lat":"19.4708","lon":"-155.0842","ncei_id":"US1HIHI0036","nws_id":"NA","nesdis_id":"NA","scan_id":"NA","smart_node_rf_id":"NA","dataset":"rfs_11_27_19"},{"skn":"91.8","name":"S GLEWNWOOD 91.8","observer":"COOP","network":"COOP","island":"BI","elevation_m":"694","lat":"19.488","lon":"-155.149","ncei_id":"USC00518638","nws_id":"NA","nesdis_id":"NA","scan_id":"NA","smart_node_rf_id":"NA","dataset":"rfs_11_27_19"},{"skn":"91.9","name":"Pahoa Beacon","observer":"NWS","network":"HydroNet-UaNet","island":"BI","elevation_m":"187.1472","lat":"19.5149994","lon":"-154.9644","ncei_id":"NA","nws_id":"PHAH1","nesdis_id":"NA","scan_id":"NA","smart_node_rf_id":"NA","dataset":"rfs_11_27_19"},{"skn":"92","name":"KEAAU 92","observer":"COOP","network":"COOP","island":"BI","elevation_m":"87","lat":"19.62918887","lon":"-155.0333418","ncei_id":"USC00513872","nws_id":"NA","nesdis_id":"NA","scan_id":"NA","smart_node_rf_id":"NA","dataset":"rfs_11_27_19"},{"skn":"92.5","name":"KiholoRainGage","observer":"USGS","network":"USGS","island":"BI","elevation_m":"283.96692","lat":"19.82580556","lon":"-155.8925833","ncei_id":"NA","nws_id":"KIRH1","nesdis_id":"DD60236E","scan_id":"NA","smart_node_rf_id":"NA","dataset":"rfs_11_27_19"},{"skn":"93.11","name":"KAPOHO BEACH 93.11","observer":"COOP","network":"COOP","island":"BI","elevation_m":"4","lat":"19.48892483","lon":"-154.8200037","ncei_id":"USC00513368","nws_id":"NA","nesdis_id":"NA","scan_id":"NA","smart_node_rf_id":"NA","dataset":"rfs_11_27_19"},{"skn":"93.12","name":"PUUANAHULU","observer":"S&PF","network":"RAWS","island":"BI","elevation_m":"830.58","lat":"19.83277778","lon":"-155.76972222","ncei_id":"NA","nws_id":"PULH1","nesdis_id":"48703040","scan_id":"NA","smart_node_rf_id":"NA","dataset":"rfs_11_27_19"},{"skn":"93.13","name":"Mamalahoa","observer":"HECO","network":"HIPPNET","island":"BI","elevation_m":"636","lat":"19.80256","lon":"-155.85062","ncei_id":"NA","nws_id":"NA","nesdis_id":"NA","scan_id":"NA","smart_node_rf_id":"NA","dataset":"rfs_11_27_19"},{"skn":"93.5","name":"KAPOHO LANDING 93.5","observer":"COOP","network":"COOP","island":"BI","elevation_m":"88","lat":"19.50364409","lon":"-154.8605597","ncei_id":"USC00513369","nws_id":"NA","nesdis_id":"NA","scan_id":"NA","smart_node_rf_id":"NA","dataset":"rfs_11_27_19"},{"skn":"93.61","name":"PAHOA 4.7 NE","observer":"HI US","network":"CoCoRaHs","island":"CoCoRaHs","elevation_m":"BI","lat":"53.95","lon":"19.5473","ncei_id":"-154.8988","nws_id":"US1HIHI0065","nesdis_id":"NA","scan_id":"NA","smart_node_rf_id":"NA","dataset":"rfs_11_27_19"},{"skn":"93.62","name":"PAHOA 5.7 NE","observer":"COOP","network":"COOP","island":"BI","elevation_m":"27.4","lat":"19.5565","lon":"-154.8865","ncei_id":"US1HIHI0070","nws_id":"NA","nesdis_id":"NA","scan_id":"NA","smart_node_rf_id":"NA","dataset":"rfs_11_27_19"},{"skn":"93.63","name":"HAWAIIAN PARADISE PARK 2.4 E","observer":"COOP","network":"COOP","island":"BI","elevation_m":"10.1","lat":"19.594568","lon":"-154.936038","ncei_id":"US1HIHI0072","nws_id":"NA","nesdis_id":"NA","scan_id":"NA","smart_node_rf_id":"NA","dataset":"rfs_11_27_19"},{"skn":"93.64","name":"KEAAU 5.5","observer":"COOP","network":"COOP","island":"BI","elevation_m":"18","lat":"19.613803","lon":"-154.955684","ncei_id":"US1HIHI0068","nws_id":"NA","nesdis_id":"NA","scan_id":"NA","smart_node_rf_id":"NA","dataset":"rfs_11_27_19"},{"skn":"93.8","name":"KONA VILLAGE 93.8","observer":"COOP","network":"COOP","island":"BI","elevation_m":"12","lat":"19.8314012","lon":"-155.9858256","ncei_id":"USC00514765","nws_id":"NA","nesdis_id":"NA","scan_id":"NA","smart_node_rf_id":"NA","dataset":"rfs_11_27_19"},{"skn":"93.9","name":"KiholoBay","observer":"HECO","network":"HIPPNET","island":"BI","elevation_m":"2","lat":"19.85497","lon":"-155.9247","ncei_id":"NA","nws_id":"NA","nesdis_id":"NA","scan_id":"NA","smart_node_rf_id":"NA","dataset":"rfs_11_27_19"},{"skn":"94","name":"KAUPULEHU LAVA FLOW","observer":"S&PF","network":"RAWS","island":"BI","elevation_m":"372.1608","lat":"19.80333333","lon":"-155.91805556","ncei_id":"NA","nws_id":"KPLH1","nesdis_id":"4870E628","scan_id":"NA","smart_node_rf_id":"NA","dataset":"rfs_11_27_19"},{"skn":"94.5","name":"PUU WAAWAA","observer":"S&PF","network":"RAWS","island":"BI","elevation_m":"708.9648","lat":"19.795","lon":"-155.84527778","ncei_id":"USR0000HPUW","nws_id":"PWWH1","nesdis_id":"487046D0","scan_id":"NA","smart_node_rf_id":"NA","dataset":"rfs_11_27_19"},{"skn":"95.11","name":"WAIKOLOA VILLAGE 2.7 ENE","observer":"CoCoRaHS","network":"CoCoRaHS","island":"BI","elevation_m":"265","lat":"19.9465","lon":"-155.7883","ncei_id":"US1HIHI0047","nws_id":"NA","nesdis_id":"NA","scan_id":"NA","smart_node_rf_id":"NA","dataset":"rfs_11_27_19"},{"skn":"95.6","name":"WAIKOLOA","observer":"S&PF","network":"RAWS","island":"BI","elevation_m":"297.7896","lat":"19.92416667","lon":"-155.79361111","ncei_id":"NA","nws_id":"WKVH1","nesdis_id":"4870C0C4","scan_id":"NA","smart_node_rf_id":"NA","dataset":"rfs_11_27_19"},{"skn":"95.8","name":"WAIKOLOA 95.8","observer":"COOP","network":"COOP","island":"BI","elevation_m":"268","lat":"19.93389178","lon":"-155.7877744","ncei_id":"USC00519142","nws_id":"NA","nesdis_id":"NA","scan_id":"NA","smart_node_rf_id":"NA","dataset":"rfs_11_27_19"},{"skn":"95.9","name":"WAIKOLOA BEACH RT 95.9","observer":"COOP","network":"COOP","island":"BI","elevation_m":"24","lat":"19.91278","lon":"-155.87778","ncei_id":"USC00519144","nws_id":"NA","nesdis_id":"NA","scan_id":"NA","smart_node_rf_id":"NA","dataset":"rfs_11_27_19"},{"skn":"98.1","name":"PUUKOHOLA HEIAU 98.1","observer":"COOP","network":"COOP","island":"BI","elevation_m":"43","lat":"20.02666416","lon":"-155.81944","ncei_id":"USC00518422","nws_id":"NA","nesdis_id":"NA","scan_id":"NA","smart_node_rf_id":"NA","dataset":"rfs_11_27_19"},{"skn":"98.2","name":"PUHO CS","observer":"NPS","network":"RAWS","island":"BI","elevation_m":"29.5656","lat":"19.42194444","lon":"-155.9075","ncei_id":"NA","nws_id":"PERH1","nesdis_id":"32D6803A","scan_id":"NA","smart_node_rf_id":"NA","dataset":"rfs_11_27_19"},{"skn":"99","name":"PTA WEST","observer":"DOD","network":"RAWS","island":"BI","elevation_m":"1307.592","lat":"19.77166667","lon":"-155.70222222","ncei_id":"USR0000HPTW","nws_id":"PKWH1","nesdis_id":"32667176","scan_id":"NA","smart_node_rf_id":"NA","dataset":"rfs_11_27_19"},{"skn":"100","name":"Waikii","observer":"State","network":"STATE","island":"BI","elevation_m":"1417","lat":"19.82","lon":"-155.6508","ncei_id":"NA","nws_id":"NA","nesdis_id":"NA","scan_id":"NA","smart_node_rf_id":"NA","dataset":"rfs_11_27_19"},{"skn":"100.3","name":"Waikii","observer":"NWS","network":"HydroNet-UaNet","island":"BI","elevation_m":"1417.0152","lat":"19.8614006","lon":"-155.6506","ncei_id":"NA","nws_id":"WHIH1","nesdis_id":"NA","scan_id":"NA","smart_node_rf_id":"NA","dataset":"rfs_11_27_19"},{"skn":"101.1","name":"PTA KEAMUKU","observer":"DOD","network":"RAWS","island":"BI","elevation_m":"1025.9568","lat":"19.90222222","lon":"-155.67861111","ncei_id":"NA","nws_id":"PKMH1","nesdis_id":"328FB7BE","scan_id":"NA","smart_node_rf_id":"NA","dataset":"rfs_11_27_19"},{"skn":"102.8","name":"AUHMOA","observer":"S&PF","network":"RAWS","island":"BI","elevation_m":"2001.9264","lat":"19.83638889","lon":"-155.61305556","ncei_id":"NA","nws_id":"AHMH1","nesdis_id":"4870D3B2","scan_id":"NA","smart_node_rf_id":"NA","dataset":"rfs_11_27_19"},{"skn":"103","name":"MAKAHALAU 103","observer":"COOP","network":"COOP","island":"BI","elevation_m":"1165","lat":"19.9736104","lon":"-155.5488883","ncei_id":"USC00515761","nws_id":"NA","nesdis_id":"NA","scan_id":"NA","smart_node_rf_id":"NA","dataset":"rfs_11_27_19"},{"skn":"103.3","name":"Mana House","observer":"SCAN","network":"SCAN","island":"BI","elevation_m":"1288","lat":"19.96","lon":"-155.54","ncei_id":"NA","nws_id":"NA","nesdis_id":"NA","scan_id":"2097","smart_node_rf_id":"NA","dataset":"rfs_11_27_19"},{"skn":"107.3","name":"BRADSHAW ARMY AIR FIELD","observer":"NWS","network":"NWS","island":"BI","elevation_m":"1887","lat":"19.76","lon":"-155.55361","ncei_id":"USW00021508","nws_id":"NA","nesdis_id":"NA","scan_id":"NA","smart_node_rf_id":"NA","dataset":"rfs_11_27_19"},{"skn":"107.4","name":"PTA EAST","observer":"DOD","network":"RAWS","island":"BI","elevation_m":"1959.864","lat":"19.68277778","lon":"-155.54527778","ncei_id":"USR0000HPTA","nws_id":"PTAH1","nesdis_id":"3266D18E","scan_id":"NA","smart_node_rf_id":"NA","dataset":"rfs_11_27_19"},{"skn":"109","name":"PTA RANGE 17","observer":"DOD","network":"RAWS","island":"BI","elevation_m":"1734.312","lat":"19.74583333","lon":"-155.62611111","ncei_id":"NA","nws_id":"NA","nesdis_id":"3279630C","scan_id":"NA","smart_node_rf_id":"NA","dataset":"rfs_11_27_19"},{"skn":"111","name":"HALEPOHAKU 111","observer":"COOP","network":"COOP","island":"BI","elevation_m":"2811","lat":"19.76029046","lon":"-155.4555569","ncei_id":"USC00511065","nws_id":"NA","nesdis_id":"NA","scan_id":"NA","smart_node_rf_id":"NA","dataset":"rfs_11_27_19"},{"skn":"113.2","name":"PUU MALI","observer":"S&PF","network":"RAWS","island":"BI","elevation_m":"2165","lat":"19.16572","lon":"-155.420881","ncei_id":"NA","nws_id":"PMLH1","nesdis_id":"3181742E","scan_id":"NA","smart_node_rf_id":"NA","dataset":"rfs_11_27_19"},{"skn":"125.12","name":"Pua Akala","observer":"SCAN","network":"SCAN","island":"BI","elevation_m":"1949","lat":"19.8","lon":"-155.3333333","ncei_id":"NA","nws_id":"NA","nesdis_id":"NA","scan_id":"2098","smart_node_rf_id":"NA","dataset":"rfs_11_27_19"},{"skn":"127.5","name":"Laupahoehoe","observer":"HECO","network":"HIPPNET","island":"BI","elevation_m":"1145","lat":"19.93217","lon":"-155.29129","ncei_id":"NA","nws_id":"NA","nesdis_id":"NA","scan_id":"NA","smart_node_rf_id":"NA","dataset":"rfs_11_27_19"},{"skn":"128.1","name":"Hakalau","observer":"HECO","network":"HIPPNET","island":"BI","elevation_m":"1665","lat":"19.83873","lon":"-155.30797","ncei_id":"NA","nws_id":"NA","nesdis_id":"NA","scan_id":"NA","smart_node_rf_id":"NA","dataset":"rfs_11_27_19"},{"skn":"129","name":"HAKALAU","observer":"FWS","network":"RAWS","island":"BI","elevation_m":"1950.72","lat":"19.82111111","lon":"-155.33055556","ncei_id":"USR0000HHAK","nws_id":"HKUH1","nesdis_id":"8374D370","scan_id":"NA","smart_node_rf_id":"NA","dataset":"rfs_11_27_19"},{"skn":"131.1","name":"OOKALA 2.8 S","observer":"CoCoRaHS","network":"CoCoRaHS","island":"BI","elevation_m":"553","lat":"19.9777","lon":"-155.2831","ncei_id":"US1HIHI0004","nws_id":"NA","nesdis_id":"NA","scan_id":"NA","smart_node_rf_id":"NA","dataset":"rfs_11_27_19"},{"skn":"132.2","name":"Spencer","observer":"HECO","network":"HIPPNET","island":"BI","elevation_m":"454","lat":"19.96358","lon":"-155.25014","ncei_id":"NA","nws_id":"NA","nesdis_id":"NA","scan_id":"NA","smart_node_rf_id":"NA","dataset":"rfs_11_27_19"},{"skn":"132.3","name":"POHAKUPUKA","observer":"COOP","network":"COOP","island":"BI","elevation_m":"82","lat":"19.9522","lon":"-155.185","ncei_id":"USC00518067","nws_id":"NA","nesdis_id":"NA","scan_id":"NA","smart_node_rf_id":"NA","dataset":"rfs_11_27_19"},{"skn":"132.4","name":"KAPEHU MAUKA 132.4","observer":"COOP","network":"COOP","island":"BI","elevation_m":"335","lat":"19.95","lon":"-155.217","ncei_id":"USC00513329","nws_id":"NA","nesdis_id":"NA","scan_id":"NA","smart_node_rf_id":"NA","dataset":"rfs_11_27_19"},{"skn":"132.5","name":"KIHALANI 132.5","observer":"COOP","network":"COOP","island":"BI","elevation_m":"302","lat":"19.97278","lon":"-155.23944","ncei_id":"USC00514459","nws_id":"NA","nesdis_id":"NA","scan_id":"NA","smart_node_rf_id":"NA","dataset":"rfs_11_27_19"},{"skn":"133.1","name":"LAUPAHOEHOE 133.1","observer":"COOP","network":"COOP","island":"BI","elevation_m":"140","lat":"19.98027372","lon":"-155.2305601","ncei_id":"USC00515427","nws_id":"NA","nesdis_id":"NA","scan_id":"NA","smart_node_rf_id":"NA","dataset":"rfs_11_27_19"},{"skn":"133.3","name":"Laupahoehoe","observer":"NWS","network":"HydroNet-UaNet","island":"BI","elevation_m":"499.872","lat":"19.9792","lon":"-155.2372","ncei_id":"NA","nws_id":"LPHH1","nesdis_id":"B159741A","scan_id":"NA","smart_node_rf_id":"NA","dataset":"rfs_11_27_19"},{"skn":"136","name":"HONOMU 136","observer":"COOP","network":"COOP","island":"BI","elevation_m":"534","lat":"19.83862075","lon":"-155.160563","ncei_id":"USC00511958","nws_id":"NA","nesdis_id":"NA","scan_id":"NA","smart_node_rf_id":"NA","dataset":"rfs_11_27_19"},{"skn":"137.4","name":"WAILEA 137.4","observer":"COOP","network":"COOP","island":"BI","elevation_m":"61","lat":"19.8875","lon":"-155.12528","ncei_id":"USC00519432","nws_id":"NA","nesdis_id":"NA","scan_id":"NA","smart_node_rf_id":"NA","dataset":"rfs_11_27_19"},{"skn":"138.2","name":"KAHUNA FALLS 138.2","observer":"COOP","network":"COOP","island":"BI","elevation_m":"424","lat":"19.86139","lon":"-155.16361","ncei_id":"USC00512595","nws_id":"NA","nesdis_id":"NA","scan_id":"NA","smart_node_rf_id":"NA","dataset":"rfs_11_27_19"},{"skn":"138.3","name":"HONOMU 2.8 SW","observer":"CoCoRaHS","network":"CoCoRaHS","island":"BI","elevation_m":"385","lat":"19.8494","lon":"-155.15","ncei_id":"US1HIHI0014","nws_id":"NA","nesdis_id":"NA","scan_id":"NA","smart_node_rf_id":"NA","dataset":"rfs_11_27_19"},{"skn":"140.1","name":"PAPAIKOU MAUKA NO 2 140","observer":"COOP","network":"COOP","island":"BI","elevation_m":"427","lat":"19.78695738","lon":"-155.1388973","ncei_id":"USC00517724","nws_id":"NA","nesdis_id":"NA","scan_id":"NA","smart_node_rf_id":"NA","dataset":"rfs_11_27_19"},{"skn":"140.5","name":"KAUKU 140.5","observer":"COOP","network":"COOP","island":"BI","elevation_m":"457","lat":"19.835","lon":"-155.149","ncei_id":"USC00513473","nws_id":"NA","nesdis_id":"NA","scan_id":"NA","smart_node_rf_id":"NA","dataset":"rfs_11_27_19"},{"skn":"140.6","name":"Papaikou Well","observer":"Hydronet","network":"HydroNet-UaNet","island":"BI","elevation_m":"345.6432","lat":"19.7884998","lon":"-155.1313","ncei_id":"NA","nws_id":"PPWH1","nesdis_id":"NA","scan_id":"NA","smart_node_rf_id":"NA","dataset":"rfs_11_27_19"},{"skn":"142","name":"HAKALAU 142","observer":"COOP","network":"COOP","island":"BI","elevation_m":"53","lat":"19.89861522","lon":"-155.1272305","ncei_id":"USC00510905","nws_id":"NA","nesdis_id":"NA","scan_id":"NA","smart_node_rf_id":"NA","dataset":"rfs_11_27_19"},{"skn":"144.1","name":"PAPAIKOU 144.1","observer":"COOP","network":"COOP","island":"BI","elevation_m":"61","lat":"19.78362447","lon":"-155.0922318","ncei_id":"USC00517711","nws_id":"NA","nesdis_id":"NA","scan_id":"NA","smart_node_rf_id":"NA","dataset":"rfs_11_27_19"},{"skn":"144.11","name":"PEPEEKEO 0.2 SSE","observer":"CoCoRaHS","network":"CoCoRaHS","island":"BI","elevation_m":"178","lat":"19.8313","lon":"-155.1077","ncei_id":"US1HIHI0002","nws_id":"NA","nesdis_id":"NA","scan_id":"NA","smart_node_rf_id":"NA","dataset":"rfs_11_27_19"},{"skn":"144.12","name":"PAPAIKOU 1.1 N","observer":"CoCoRaHS","network":"CoCoRaHS","island":"BI","elevation_m":"108","lat":"19.8095","lon":"-155.0988","ncei_id":"US1HIHI0011","nws_id":"NA","nesdis_id":"NA","scan_id":"NA","smart_node_rf_id":"NA","dataset":"rfs_11_27_19"},{"skn":"144.9","name":"PAPAIKOU 0.3 S","observer":"CoCoRaHS","network":"CoCoRaHS","island":"BI","elevation_m":"76","lat":"19.7892","lon":"-155.0953","ncei_id":"US1HIHI0041","nws_id":"NA","nesdis_id":"NA","scan_id":"NA","smart_node_rf_id":"NA","dataset":"rfs_11_27_19"},{"skn":"147.1","name":"MIDDLE PEN 147.1","observer":"COOP","network":"COOP","island":"BI","elevation_m":"421","lat":"20.10027112","lon":"-155.8322151","ncei_id":"USC00516270","nws_id":"NA","nesdis_id":"NA","scan_id":"NA","smart_node_rf_id":"NA","dataset":"rfs_11_27_19"},{"skn":"147.2","name":"KOHALA RANCH","observer":"S&PF","network":"RAWS","island":"BI","elevation_m":"328.8792","lat":"20.08305556","lon":"-155.8325","ncei_id":"NA","nws_id":"KHRH1","nesdis_id":"4870B654","scan_id":"NA","smart_node_rf_id":"NA","dataset":"rfs_11_27_19"},{"skn":"159.2","name":"UPOLU POINT USCG 159.2","observer":"COOP","network":"COOP","island":"BI","elevation_m":"12","lat":"20.25025779","lon":"-155.8869314","ncei_id":"USC00518830","nws_id":"NA","nesdis_id":"NA","scan_id":"NA","smart_node_rf_id":"NA","dataset":"rfs_11_27_19"},{"skn":"168","name":"HAWI 168","observer":"COOP","network":"COOP","island":"BI","elevation_m":"183","lat":"20.23692665","lon":"-155.8272119","ncei_id":"USC00511339","nws_id":"NA","nesdis_id":"NA","scan_id":"NA","smart_node_rf_id":"NA","dataset":"rfs_11_27_19"},{"skn":"175.1","name":"KOHALA MISSION 175.1","observer":"COOP","network":"COOP","island":"BI","elevation_m":"163","lat":"20.2252605","lon":"-155.7922137","ncei_id":"USC00514680","nws_id":"NA","nesdis_id":"NA","scan_id":"NA","smart_node_rf_id":"NA","dataset":"rfs_11_27_19"},{"skn":"176.3","name":"Kahua Ranch HQ","observer":"NWS","network":"HydroNet-UaNet","island":"BI","elevation_m":"987.552","lat":"20.1249008","lon":"-155.7884","ncei_id":"NA","nws_id":"KASH1","nesdis_id":"15D293C2","scan_id":"NA","smart_node_rf_id":"NA","dataset":"rfs_11_27_19"},{"skn":"178.11","name":"PONOHOLO RCH 178.11","observer":"COOP","network":"COOP","island":"BI","elevation_m":"762","lat":"20.12554592","lon":"-155.7774941","ncei_id":"USC00518101","nws_id":"NA","nesdis_id":"NA","scan_id":"NA","smart_node_rf_id":"NA","dataset":"rfs_11_27_19"},{"skn":"179.3","name":"POLOLU LOOKOUT 179.3","observer":"COOP","network":"COOP","island":"BI","elevation_m":"149","lat":"20.20694","lon":"-155.73778","ncei_id":"USC00518086","nws_id":"NA","nesdis_id":"NA","scan_id":"NA","smart_node_rf_id":"NA","dataset":"rfs_11_27_19"},{"skn":"185.7","name":"KawainuiRainGagenearKamuela","observer":"USGS","network":"USGS","island":"BI","elevation_m":"1237.488","lat":"20.08533333","lon":"-155.6811667","ncei_id":"NA","nws_id":"KWSH1","nesdis_id":"DDF6A592","scan_id":"NA","smart_node_rf_id":"NA","dataset":"rfs_11_27_19"},{"skn":"189","name":"Waimea Plain","observer":"SCAN","network":"SCAN","island":"BI","elevation_m":"927","lat":"20.01666667","lon":"-155.6","ncei_id":"NA","nws_id":"NA","nesdis_id":"NA","scan_id":"2099","smart_node_rf_id":"NA","dataset":"rfs_11_27_19"},{"skn":"191.1","name":"LALAMILO FLD OF 191.1","observer":"COOP","network":"COOP","island":"BI","elevation_m":"799","lat":"20.01083015","lon":"-155.6763867","ncei_id":"USC00515260","nws_id":"NA","nesdis_id":"NA","scan_id":"NA","smart_node_rf_id":"NA","dataset":"rfs_11_27_19"},{"skn":"192.7","name":"Kamuela Upper","observer":"NWS","network":"HydroNet-UaNet","island":"BI","elevation_m":"948.5376","lat":"20.0319996","lon":"-155.666699999999","ncei_id":"USC00513080","nws_id":"KUUH1","nesdis_id":"817075F6","scan_id":"NA","smart_node_rf_id":"NA","dataset":"rfs_11_27_19"},{"skn":"192.9","name":"PUUKAPU HMSTD 192.9","observer":"COOP","network":"COOP","island":"BI","elevation_m":"916","lat":"20.0375","lon":"-155.6347","ncei_id":"USC00518386","nws_id":"NA","nesdis_id":"NA","scan_id":"NA","smart_node_rf_id":"NA","dataset":"rfs_11_27_19"},{"skn":"199","name":"KUKUIHAELE HIC 199","observer":"COOP","network":"COOP","island":"BI","elevation_m":"299","lat":"20.11526922","lon":"-155.5822202","ncei_id":"USC00514928","nws_id":"NA","nesdis_id":"NA","scan_id":"NA","smart_node_rf_id":"NA","dataset":"rfs_11_27_19"},{"skn":"201.3","name":"Kamuela 1","observer":"NWS","network":"HydroNet-UaNet","island":"BI","elevation_m":"877.824","lat":"20.0394993","lon":"-155.608399999999","ncei_id":"NA","nws_id":"KMUH1","nesdis_id":"81706680","scan_id":"NA","smart_node_rf_id":"NA","dataset":"rfs_11_27_19"},{"skn":"206.1","name":"KUKUIHAELE 206.1","observer":"COOP","network":"COOP","island":"BI","elevation_m":"226","lat":"20.12167","lon":"-155.57417","ncei_id":"USC00514927","nws_id":"NA","nesdis_id":"NA","scan_id":"NA","smart_node_rf_id":"NA","dataset":"rfs_11_27_19"},{"skn":"214","name":"HAINA 214","observer":"COOP","network":"COOP","island":"BI","elevation_m":"140","lat":"20.09193527","lon":"-155.4738903","ncei_id":"USC00510840","nws_id":"NA","nesdis_id":"NA","scan_id":"NA","smart_node_rf_id":"NA","dataset":"rfs_11_27_19"},{"skn":"215","name":"HONOKAA TOWN 215","observer":"COOP","network":"COOP","island":"BI","elevation_m":"326","lat":"20.08026947","lon":"-155.4672231","ncei_id":"USC00511856","nws_id":"NA","nesdis_id":"NA","scan_id":"NA","smart_node_rf_id":"NA","dataset":"rfs_11_27_19"},{"skn":"215.5","name":"Honokaa","observer":"NWS","network":"HydroNet-UaNet","island":"BI","elevation_m":"591.9216","lat":"20.0656","lon":"-155.49","ncei_id":"NA","nws_id":"HNKH1","nesdis_id":"B15047DC","scan_id":"NA","smart_node_rf_id":"NA","dataset":"rfs_11_27_19"},{"skn":"216.6","name":"HONOKAA 2.5 SSW","observer":"CoCoRaHS","network":"CoCoRaHS","island":"BI","elevation_m":"757","lat":"20.0417","lon":"-155.4777","ncei_id":"US1HIHI0033","nws_id":"NA","nesdis_id":"NA","scan_id":"NA","smart_node_rf_id":"NA","dataset":"rfs_11_27_19"},{"skn":"216.8","name":"KALOPA 216.8","observer":"COOP","network":"COOP","island":"BI","elevation_m":"396","lat":"20.06111","lon":"-155.43528","ncei_id":"USC00512982","nws_id":"NA","nesdis_id":"NA","scan_id":"NA","smart_node_rf_id":"NA","dataset":"rfs_11_27_19"},{"skn":"216.9","name":"HONOKAA 2.7 ESE","observer":"CoCoRaHS","network":"CoCoRaHS","island":"BI","elevation_m":"333","lat":"20.0606","lon":"-155.43","ncei_id":"US1HIHI0034","nws_id":"NA","nesdis_id":"NA","scan_id":"NA","smart_node_rf_id":"NA","dataset":"rfs_11_27_19"},{"skn":"217","name":"PAAUHAU 217","observer":"COOP","network":"COOP","island":"BI","elevation_m":"122","lat":"20.08360173","lon":"-155.4372236","ncei_id":"USC00517204","nws_id":"NA","nesdis_id":"NA","scan_id":"NA","smart_node_rf_id":"NA","dataset":"rfs_11_27_19"},{"skn":"217.2","name":"PAAUHAU MAUKA 217.2","observer":"COOP","network":"COOP","island":"BI","elevation_m":"341","lat":"20.07306","lon":"-155.44722","ncei_id":"USC00517209","nws_id":"NA","nesdis_id":"NA","scan_id":"NA","smart_node_rf_id":"NA","dataset":"rfs_11_27_19"},{"skn":"221","name":"PAAUILO 221","observer":"COOP","network":"COOP","island":"BI","elevation_m":"244","lat":"20.03860487","lon":"-155.3688913","ncei_id":"USC00517312","nws_id":"NA","nesdis_id":"NA","scan_id":"NA","smart_node_rf_id":"NA","dataset":"rfs_11_27_19"},{"skn":"221.7","name":"PAAUILO 2.4 SW","observer":"CoCoRaHS","network":"CoCoRaHS","island":"BI","elevation_m":"613","lat":"20.019","lon":"-155.3988","ncei_id":"US1HIHI0050","nws_id":"NA","nesdis_id":"NA","scan_id":"NA","smart_node_rf_id":"NA","dataset":"rfs_11_27_19"},{"skn":"222","name":"KUKAIAU 222","observer":"COOP","network":"COOP","island":"BI","elevation_m":"256","lat":"20.02693892","lon":"-155.3422253","ncei_id":"USC00514815","nws_id":"NA","nesdis_id":"NA","scan_id":"NA","smart_node_rf_id":"NA","dataset":"rfs_11_27_19"},{"skn":"222.8","name":"PAAUILO 4.8 SE","observer":"CoCoRaHS","network":"CoCoRaHS","island":"BI","elevation_m":"540","lat":"19.996","lon":"-155.3179","ncei_id":"US1HIHI0043","nws_id":"NA","nesdis_id":"NA","scan_id":"NA","smart_node_rf_id":"NA","dataset":"rfs_11_27_19"},{"skn":"223","name":"OOKALA 223","observer":"COOP","network":"COOP","island":"BI","elevation_m":"131","lat":"20.01527222","lon":"-155.2838932","ncei_id":"USC00517131","nws_id":"NA","nesdis_id":"NA","scan_id":"NA","smart_node_rf_id":"NA","dataset":"rfs_11_27_19"},{"skn":"249.1","name":"MAKENA GOLF CRS 249.1","observer":"COOP","network":"COOP","island":"MA","elevation_m":"30","lat":"20.6420893","lon":"-156.4388486","ncei_id":"USC00515842","nws_id":"NA","nesdis_id":"NA","scan_id":"NA","smart_node_rf_id":"NA","dataset":"rfs_11_27_19"},{"skn":"250","name":"ULUPALAKUA RANCH 250","observer":"COOP","network":"COOP","island":"MA","elevation_m":"579","lat":"20.648174","lon":"-156.398497","ncei_id":"USC00518760","nws_id":"NA","nesdis_id":"NA","scan_id":"NA","smart_node_rf_id":"NA","dataset":"rfs_11_27_19"},{"skn":"250.2","name":"Ulupalakua Ranch","observer":"NWS","network":"HydroNet-UaNet","island":"MA","elevation_m":"581.5584","lat":"20.6487999","lon":"-156.3981","ncei_id":"NA","nws_id":"ULUH1","nesdis_id":"8170531A","scan_id":"NA","smart_node_rf_id":"NA","dataset":"rfs_11_27_19"},{"skn":"252","name":"AUWAHI 252","observer":"COOP","network":"COOP","island":"MA","elevation_m":"628","lat":"20.62014695","lon":"-156.3288529","ncei_id":"USC00510175","nws_id":"NA","nesdis_id":"NA","scan_id":"NA","smart_node_rf_id":"NA","dataset":"rfs_11_27_19"},{"skn":"253","name":"AUWAHI HN-141","observer":"HaleNet","network":"HaleNet","island":"MA","elevation_m":"1166","lat":"20.64422222","lon":"-156.3420556","ncei_id":"NA","nws_id":"NA","nesdis_id":"NA","scan_id":"NA","smart_node_rf_id":"NA","dataset":"rfs_11_27_19"},{"skn":"255","name":"KepuniGulchRainGage","observer":"USGS","network":"USGS","island":"MA","elevation_m":"225.552","lat":"20.6195","lon":"-156.2518889","ncei_id":"NA","nws_id":"KPNH1","nesdis_id":"F000D4EA","scan_id":"NA","smart_node_rf_id":"NA","dataset":"rfs_11_27_19"},{"skn":"256","name":"WAIOPAI RANCH 256","observer":"COOP","network":"COOP","island":"MA","elevation_m":"67","lat":"20.63014664","lon":"-156.2038592","ncei_id":"USC00519765","nws_id":"NA","nesdis_id":"NA","scan_id":"NA","smart_node_rf_id":"NA","dataset":"rfs_11_27_19"},{"skn":"258.6","name":"OHE'O 258.6","observer":"COOP","network":"COOP","island":"MA","elevation_m":"24","lat":"20.662925","lon":"-156.04248","ncei_id":"USC00517000","nws_id":"NA","nesdis_id":"NA","scan_id":"NA","smart_node_rf_id":"NA","dataset":"rfs_11_27_19"},{"skn":"266","name":"KAUPO GAP","observer":"NPS","network":"RAWS","island":"MA","elevation_m":"1228.344","lat":"20.68416667","lon":"-156.15194444","ncei_id":"USR0000HKAU","nws_id":"KPGH1","nesdis_id":"FA45A6E0","scan_id":"NA","smart_node_rf_id":"NA","dataset":"rfs_11_27_19"},{"skn":"267","name":"KULA HOSPITAL 267","observer":"COOP","network":"COOP","island":"MA","elevation_m":"916","lat":"20.70013977","lon":"-156.3555187","ncei_id":"USC00515004","nws_id":"NA","nesdis_id":"NA","scan_id":"NA","smart_node_rf_id":"NA","dataset":"rfs_11_27_19"},{"skn":"267.2","name":"POLIPOLI SPRINGS 267.2","observer":"COOP","network":"COOP","island":"MA","elevation_m":"1875","lat":"20.67847493","lon":"-156.3288532","ncei_id":"USC00518070","nws_id":"NA","nesdis_id":"NA","scan_id":"NA","smart_node_rf_id":"NA","dataset":"rfs_11_27_19"},{"skn":"267.8","name":"KULA 1","observer":"S&PF","network":"RAWS","island":"MA","elevation_m":"1998.5736","lat":"20.68305556","lon":"-156.32166667","ncei_id":"NA","nws_id":"KLFH1","nesdis_id":"AA10F12E","scan_id":"NA","smart_node_rf_id":"NA","dataset":"rfs_11_27_19"},{"skn":"276","name":"BIG BOG HN-164","observer":"HaleNet","network":"HaleNet","island":"MA","elevation_m":"1650","lat":"20.72655556","lon":"-156.09225","ncei_id":"NA","nws_id":"NA","nesdis_id":"NA","scan_id":"NA","smart_node_rf_id":"NA","dataset":"rfs_11_27_19"},{"skn":"277","name":"HORSHOE PU'U HN-163","observer":"HaleNet","network":"HaleNet","island":"MA","elevation_m":"1930","lat":"20.73630556","lon":"-156.1071389","ncei_id":"NA","nws_id":"NA","nesdis_id":"NA","scan_id":"NA","smart_node_rf_id":"NA","dataset":"rfs_11_27_19"},{"skn":"278","name":"TREE LINE HN-162","observer":"HaleNet","network":"HaleNet","island":"MA","elevation_m":"2195","lat":"20.73422222","lon":"-156.1228889","ncei_id":"NA","nws_id":"NA","nesdis_id":"NA","scan_id":"NA","smart_node_rf_id":"NA","dataset":"rfs_11_27_19"},{"skn":"278.1","name":"Lakes - Subalpine","observer":"Little HaleNet","network":"Little HaleNet","island":"MA","elevation_m":"2228","lat":"20.73492113","lon":"-156.1234398","ncei_id":"NA","nws_id":"NA","nesdis_id":"NA","scan_id":"NA","smart_node_rf_id":"NA","dataset":"rfs_11_27_19"},{"skn":"278.11","name":"Puu Alaea - Cloud forest","observer":"Little HaleNet","network":"Little HaleNet","island":"MA","elevation_m":"1993","lat":"20.745673","lon":"-156.1425145","ncei_id":"NA","nws_id":"NA","nesdis_id":"NA","scan_id":"NA","smart_node_rf_id":"NA","dataset":"rfs_11_27_19"},{"skn":"278.12","name":"Puu Alaea - Forest line","observer":"Little HaleNet","network":"Little HaleNet","island":"MA","elevation_m":"2033","lat":"20.74567736","lon":"-156.1424321","ncei_id":"NA","nws_id":"NA","nesdis_id":"NA","scan_id":"NA","smart_node_rf_id":"NA","dataset":"rfs_11_27_19"},{"skn":"278.2","name":"Lakes - Forest line","observer":"Little HaleNet","network":"Little HaleNet","island":"MA","elevation_m":"2182","lat":"20.735063","lon":"-156.1222481","ncei_id":"NA","nws_id":"NA","nesdis_id":"NA","scan_id":"NA","smart_node_rf_id":"NA","dataset":"rfs_11_27_19"},{"skn":"278.3","name":"Lakes - Cloud forest","observer":"Little HaleNet","network":"Little HaleNet","island":"MA","elevation_m":"2143","lat":"20.73575551","lon":"-156.1214124","ncei_id":"NA","nws_id":"NA","nesdis_id":"NA","scan_id":"NA","smart_node_rf_id":"NA","dataset":"rfs_11_27_19"},{"skn":"278.4","name":"Lakes - Alpine","observer":"Little HaleNet","network":"Little HaleNet","island":"MA","elevation_m":"2304","lat":"20.73450891","lon":"-156.1273482","ncei_id":"NA","nws_id":"NA","nesdis_id":"NA","scan_id":"NA","smart_node_rf_id":"NA","dataset":"rfs_11_27_19"},{"skn":"278.5","name":"Frisbee - Alpine","observer":"Little HaleNet","network":"Little HaleNet","island":"MA","elevation_m":"2320","lat":"20.73857613","lon":"-156.1365744","ncei_id":"NA","nws_id":"NA","nesdis_id":"NA","scan_id":"NA","smart_node_rf_id":"NA","dataset":"rfs_11_27_19"},{"skn":"278.6","name":"Frisbee - Subalpine","observer":"Little HaleNet","network":"Little HaleNet","island":"MA","elevation_m":"2191","lat":"20.74071537","lon":"-156.1350318","ncei_id":"NA","nws_id":"NA","nesdis_id":"NA","scan_id":"NA","smart_node_rf_id":"NA","dataset":"rfs_11_27_19"},{"skn":"278.7","name":"Frisbee - Forest line","observer":"Little HaleNet","network":"Little HaleNet","island":"MA","elevation_m":"2135","lat":"20.74195056","lon":"-156.1342138","ncei_id":"NA","nws_id":"NA","nesdis_id":"NA","scan_id":"NA","smart_node_rf_id":"NA","dataset":"rfs_11_27_19"},{"skn":"278.71","name":"Frisbee - Cloud forest","observer":"Little HaleNet","network":"Little HaleNet","island":"MA","elevation_m":"2087","lat":"20.73622225","lon":"-156.1341472","ncei_id":"NA","nws_id":"NA","nesdis_id":"NA","scan_id":"NA","smart_node_rf_id":"NA","dataset":"rfs_11_27_19"},{"skn":"278.8","name":"Puu Alaea - Alpine","observer":"Little HaleNet","network":"Little HaleNet","island":"MA","elevation_m":"2320","lat":"20.74402239","lon":"-156.1421477","ncei_id":"NA","nws_id":"NA","nesdis_id":"NA","scan_id":"NA","smart_node_rf_id":"NA","dataset":"rfs_11_27_19"},{"skn":"278.9","name":"Puu Alaea - Subalpine","observer":"Little HaleNet","network":"Little HaleNet","island":"MA","elevation_m":"2075","lat":"20.74489428","lon":"-156.1421289","ncei_id":"NA","nws_id":"NA","nesdis_id":"NA","scan_id":"NA","smart_node_rf_id":"NA","dataset":"rfs_11_27_19"},{"skn":"279","name":"POHAKAU PALAHA HN-161","observer":"HaleNet","network":"HaleNet","island":"MA","elevation_m":"2460","lat":"20.73061111","lon":"-156.1413056","ncei_id":"NA","nws_id":"NA","nesdis_id":"NA","scan_id":"NA","smart_node_rf_id":"NA","dataset":"rfs_11_27_19"},{"skn":"280.1","name":"OheoGulchRGatdamnearKipahulu","observer":"USGS","network":"USGS","island":"MA","elevation_m":"128.016","lat":"20.66836111","lon":"-156.0522222","ncei_id":"NA","nws_id":"NA","nesdis_id":"NA","scan_id":"NA","smart_node_rf_id":"NA","dataset":"rfs_11_27_19"},{"skn":"296.1","name":"OLOWALU 296.1","observer":"COOP","network":"COOP","island":"MA","elevation_m":"8","lat":"20.81179866","lon":"-156.618842","ncei_id":"USC00517059","nws_id":"NA","nesdis_id":"NA","scan_id":"NA","smart_node_rf_id":"NA","dataset":"rfs_11_27_19"},{"skn":"297","name":"Olowalu","observer":"USGS","network":"USGS","island":"MA","elevation_m":"40","lat":"20.82305556","lon":"-156.6341667","ncei_id":"NA","nws_id":"NA","nesdis_id":"NA","scan_id":"NA","smart_node_rf_id":"NA","dataset":"rfs_11_27_19"},{"skn":"301","name":"UKUMEHAME 301","observer":"COOP","network":"COOP","island":"MA","elevation_m":"23","lat":"20.8034657","lon":"-156.5871762","ncei_id":"USC00518750","nws_id":"NA","nesdis_id":"NA","scan_id":"NA","smart_node_rf_id":"NA","dataset":"rfs_11_27_19"},{"skn":"307.2","name":"POHAKEA BRIDGE 307.2","observer":"COOP","network":"COOP","island":"MA","elevation_m":"50","lat":"20.81346495","lon":"-156.5071787","ncei_id":"USC00518060","nws_id":"NA","nesdis_id":"NA","scan_id":"NA","smart_node_rf_id":"NA","dataset":"rfs_11_27_19"},{"skn":"307.3","name":"F908","observer":"HC&S","network":"HC&S","island":"MA","elevation_m":"41","lat":"20.80713456","lon":"-156.5024709","ncei_id":"NA","nws_id":"NA","nesdis_id":"NA","scan_id":"NA","smart_node_rf_id":"NA","dataset":"rfs_11_27_19"},{"skn":"310.2","name":"F907","observer":"HC&S","network":"HC&S","island":"MA","elevation_m":"49","lat":"20.82150733","lon":"-156.4993746","ncei_id":"NA","nws_id":"NA","nesdis_id":"NA","scan_id":"NA","smart_node_rf_id":"NA","dataset":"rfs_11_27_19"},{"skn":"311","name":"KIHEI 311","observer":"COOP","network":"COOP","island":"MA","elevation_m":"26","lat":"20.78513334","lon":"-156.4505143","ncei_id":"USC00514489","nws_id":"NA","nesdis_id":"NA","scan_id":"NA","smart_node_rf_id":"NA","dataset":"rfs_11_27_19"},{"skn":"311.2","name":"Kealia Pond NWR","observer":"FWS","network":"RAWS","island":"MA","elevation_m":"3.6576","lat":"20.7975","lon":"-156.4772222","ncei_id":"NA","nws_id":"KPDH1","nesdis_id":"32B2C438","scan_id":"NA","smart_node_rf_id":"NA","dataset":"rfs_11_27_19"},{"skn":"311.3","name":"KulanihakoiRaingagenrKihei","observer":"USGS","network":"USGS","island":"MA","elevation_m":"10.668","lat":"20.76514444","lon":"-156.4480167","ncei_id":"NA","nws_id":"NA","nesdis_id":"NA","scan_id":"NA","smart_node_rf_id":"NA","dataset":"rfs_11_27_19"},{"skn":"311.5","name":"Kihei 2","observer":"NWS","network":"HydroNet-UaNet","island":"MA","elevation_m":"54.5592","lat":"20.7061005","lon":"-156.437","ncei_id":"NA","nws_id":"KHIH1","nesdis_id":"93202508","scan_id":"NA","smart_node_rf_id":"NA","dataset":"rfs_11_27_19"},{"skn":"311.6","name":"F820","observer":"HC&S","network":"HC&S","island":"MA","elevation_m":"68","lat":"20.79125141","lon":"-156.4421843","ncei_id":"NA","nws_id":"NA","nesdis_id":"NA","scan_id":"NA","smart_node_rf_id":"NA","dataset":"rfs_11_27_19"},{"skn":"311.7","name":"F911","observer":"HC&S","network":"HC&S","island":"MA","elevation_m":"67","lat":"20.81911804","lon":"-156.4730019","ncei_id":"NA","nws_id":"NA","nesdis_id":"NA","scan_id":"NA","smart_node_rf_id":"NA","dataset":"rfs_11_27_19"},{"skn":"313.4","name":"F811","observer":"HC&S","network":"HC&S","island":"MA","elevation_m":"105","lat":"20.80733084","lon":"-156.431548","ncei_id":"NA","nws_id":"NA","nesdis_id":"NA","scan_id":"NA","smart_node_rf_id":"NA","dataset":"rfs_11_27_19"},{"skn":"314.2","name":"F415","observer":"HC&S","network":"HC&S","island":"MA","elevation_m":"211","lat":"20.7839958","lon":"-156.4081719","ncei_id":"NA","nws_id":"NA","nesdis_id":"NA","scan_id":"NA","smart_node_rf_id":"NA","dataset":"rfs_11_27_19"},{"skn":"314.3","name":"F805","observer":"HC&S","network":"HC&S","island":"MA","elevation_m":"149","lat":"20.8141153","lon":"-156.416852","ncei_id":"NA","nws_id":"NA","nesdis_id":"NA","scan_id":"NA","smart_node_rf_id":"NA","dataset":"rfs_11_27_19"},{"skn":"315.1","name":"F406","observer":"HC&S","network":"HC&S","island":"MA","elevation_m":"158","lat":"20.8249298","lon":"-156.4062924","ncei_id":"NA","nws_id":"NA","nesdis_id":"NA","scan_id":"NA","smart_node_rf_id":"NA","dataset":"rfs_11_27_19"},{"skn":"316.4","name":"F506","observer":"HC&S","network":"HC&S","island":"MA","elevation_m":"168","lat":"20.83612045","lon":"-156.4021379","ncei_id":"NA","nws_id":"NA","nesdis_id":"NA","scan_id":"NA","smart_node_rf_id":"NA","dataset":"rfs_11_27_19"},{"skn":"317.3","name":"F413","observer":"HC&S","network":"HC&S","island":"MA","elevation_m":"256","lat":"20.81767236","lon":"-156.3869903","ncei_id":"NA","nws_id":"NA","nesdis_id":"NA","scan_id":"NA","smart_node_rf_id":"NA","dataset":"rfs_11_27_19"},{"skn":"321.6","name":"F400","observer":"HC&S","network":"HC&S","island":"MA","elevation_m":"323","lat":"20.82032023","lon":"-156.3680169","ncei_id":"NA","nws_id":"NA","nesdis_id":"NA","scan_id":"NA","smart_node_rf_id":"NA","dataset":"rfs_11_27_19"},{"skn":"324.6","name":"KULA AG HN-119","observer":"HaleNet","network":"HaleNet","island":"MA","elevation_m":"965","lat":"20.75788889","lon":"-156.3200278","ncei_id":"NA","nws_id":"NA","nesdis_id":"NA","scan_id":"NA","smart_node_rf_id":"NA","dataset":"rfs_11_27_19"},{"skn":"324.7","name":"Kula Branch Stn","observer":"NWS","network":"HydroNet-UaNet","island":"MA","elevation_m":"944.88","lat":"20.7577991","lon":"-156.321699999999","ncei_id":"USC00515000","nws_id":"KBSH1","nesdis_id":"93220610","scan_id":"NA","smart_node_rf_id":"NA","dataset":"rfs_11_27_19"},{"skn":"328.4","name":"PU'U PAHU HN-106","observer":"HaleNet","network":"HaleNet","island":"MA","elevation_m":"960","lat":"20.75763889","lon":"-156.2775","ncei_id":"NA","nws_id":"NA","nesdis_id":"NA","scan_id":"NA","smart_node_rf_id":"NA","dataset":"rfs_11_27_19"},{"skn":"332","name":"OLINDA NUMBER 1 332","observer":"COOP","network":"COOP","island":"MA","elevation_m":"1258","lat":"20.79679779","lon":"-156.2738548","ncei_id":"USC00517040","nws_id":"NA","nesdis_id":"NA","scan_id":"NA","smart_node_rf_id":"NA","dataset":"rfs_11_27_19"},{"skn":"333","name":"UKULELE 333","observer":"COOP","network":"COOP","island":"MA","elevation_m":"1595","lat":"20.79179801","lon":"-156.2521891","ncei_id":"USC00518744","nws_id":"NA","nesdis_id":"NA","scan_id":"NA","smart_node_rf_id":"NA","dataset":"rfs_11_27_19"},{"skn":"337","name":"south rim","observer":"CraterNet","network":"CraterNet","island":"MA","elevation_m":"2898","lat":"20.703948","lon":"-156.241101","ncei_id":"NA","nws_id":"NA","nesdis_id":"NA","scan_id":"NA","smart_node_rf_id":"NA","dataset":"rfs_11_27_19"},{"skn":"337.1","name":"Sliding Sands","observer":"CraterNet","network":"CraterNet","island":"MA","elevation_m":"2697","lat":"20.714563","lon":"-156.2394","ncei_id":"NA","nws_id":"NA","nesdis_id":"NA","scan_id":"NA","smart_node_rf_id":"NA","dataset":"rfs_11_27_19"},{"skn":"337.11","name":"Pohaku Palaha","observer":"CraterNet","network":"CraterNet","island":"MA","elevation_m":"2461","lat":"20.7300298","lon":"-156.140176","ncei_id":"NA","nws_id":"NA","nesdis_id":"NA","scan_id":"NA","smart_node_rf_id":"NA","dataset":"rfs_11_27_19"},{"skn":"337.12","name":"Puu Alaea","observer":"CraterNet","network":"CraterNet","island":"MA","elevation_m":"2282","lat":"20.73782363","lon":"-156.1453106","ncei_id":"NA","nws_id":"NA","nesdis_id":"NA","scan_id":"NA","smart_node_rf_id":"NA","dataset":"rfs_11_27_19"},{"skn":"337.13","name":"Paliku","observer":"CraterNet","network":"CraterNet","island":"MA","elevation_m":"1927","lat":"20.71236611","lon":"-156.1437572","ncei_id":"NA","nws_id":"NA","nesdis_id":"NA","scan_id":"NA","smart_node_rf_id":"NA","dataset":"rfs_11_27_19"},{"skn":"337.2","name":"Puu o Pele","observer":"CraterNet","network":"CraterNet","island":"MA","elevation_m":"2424","lat":"20.709651","lon":"-156.224485","ncei_id":"NA","nws_id":"NA","nesdis_id":"NA","scan_id":"NA","smart_node_rf_id":"NA","dataset":"rfs_11_27_19"},{"skn":"337.3","name":"Lava lake","observer":"CraterNet","network":"CraterNet","island":"MA","elevation_m":"2270","lat":"20.718443","lon":"-156.212261","ncei_id":"NA","nws_id":"NA","nesdis_id":"NA","scan_id":"NA","smart_node_rf_id":"NA","dataset":"rfs_11_27_19"},{"skn":"337.4","name":"Silversword loop","observer":"CraterNet","network":"CraterNet","island":"MA","elevation_m":"2186","lat":"20.731704","lon":"-156.205387","ncei_id":"NA","nws_id":"NA","nesdis_id":"NA","scan_id":"NA","smart_node_rf_id":"NA","dataset":"rfs_11_27_19"},{"skn":"337.5","name":"Leleiwi","observer":"CraterNet","network":"CraterNet","island":"MA","elevation_m":"2722","lat":"20.74337371","lon":"-156.2288651","ncei_id":"NA","nws_id":"NA","nesdis_id":"NA","scan_id":"NA","smart_node_rf_id":"NA","dataset":"rfs_11_27_19"},{"skn":"337.6","name":"Puu Nole","observer":"CraterNet","network":"CraterNet","island":"MA","elevation_m":"2261","lat":"20.717807","lon":"-156.188007","ncei_id":"NA","nws_id":"NA","nesdis_id":"NA","scan_id":"NA","smart_node_rf_id":"NA","dataset":"rfs_11_27_19"},{"skn":"337.7","name":"Hanakauhi","observer":"CraterNet","network":"CraterNet","island":"MA","elevation_m":"2645","lat":"20.73567887","lon":"-156.1754875","ncei_id":"NA","nws_id":"NA","nesdis_id":"NA","scan_id":"NA","smart_node_rf_id":"NA","dataset":"rfs_11_27_19"},{"skn":"337.8","name":"Aloha Park","observer":"CraterNet","network":"CraterNet","island":"MA","elevation_m":"2455","lat":"20.73555054","lon":"-156.1587809","ncei_id":"NA","nws_id":"NA","nesdis_id":"NA","scan_id":"NA","smart_node_rf_id":"NA","dataset":"rfs_11_27_19"},{"skn":"337.9","name":"Laie","observer":"CraterNet","network":"CraterNet","island":"MA","elevation_m":"2051","lat":"20.7229056","lon":"-156.1544823","ncei_id":"NA","nws_id":"NA","nesdis_id":"NA","scan_id":"NA","smart_node_rf_id":"NA","dataset":"rfs_11_27_19"},{"skn":"338","name":"HALEAKALA RANGER STATION 338","observer":"COOP","network":"COOP","island":"MA","elevation_m":"2143","lat":"20.75846738","lon":"-156.2455233","ncei_id":"USC00511004","nws_id":"NA","nesdis_id":"NA","scan_id":"NA","smart_node_rf_id":"NA","dataset":"rfs_11_27_19"},{"skn":"338.4","name":"HALEAKALA SUMMIT 338","observer":"STATE","network":"COOP","island":"MA","elevation_m":"3037","lat":"20.71667","lon":"-156.26667","ncei_id":"USC00511008","nws_id":"NA","nesdis_id":"NA","scan_id":"NA","smart_node_rf_id":"NA","dataset":"rfs_11_27_19"},{"skn":"339.4","name":"PARK HQ HN-151","observer":"HaleNet","network":"HaleNet","island":"MA","elevation_m":"2120","lat":"20.75980556","lon":"-156.2481667","ncei_id":"NA","nws_id":"NA","nesdis_id":"NA","scan_id":"NA","smart_node_rf_id":"NA","dataset":"rfs_11_27_19"},{"skn":"339.5","name":"NENE NEST HN-152","observer":"HaleNet","network":"HaleNet","island":"MA","elevation_m":"2590","lat":"20.73819444","lon":"-156.2458333","ncei_id":"NA","nws_id":"NA","nesdis_id":"NA","scan_id":"NA","smart_node_rf_id":"NA","dataset":"rfs_11_27_19"},{"skn":"339.6","name":"SUMMIT HN-153","observer":"HaleNet","network":"HaleNet","island":"MA","elevation_m":"2990","lat":"20.71036111","lon":"-156.25675","ncei_id":"NA","nws_id":"NA","nesdis_id":"NA","scan_id":"NA","smart_node_rf_id":"NA","dataset":"rfs_11_27_19"},{"skn":"348.5","name":"WestWailuaikiRainGagenrKeanae","observer":"USGS","network":"USGS","island":"MA","elevation_m":"472.44","lat":"20.81436111","lon":"-156.1429722","ncei_id":"NA","nws_id":"WWKH1","nesdis_id":"DD5E710A","scan_id":"NA","smart_node_rf_id":"NA","dataset":"rfs_11_27_19"},{"skn":"350","name":"PAAKEA 350","observer":"COOP","network":"COOP","island":"MA","elevation_m":"390","lat":"20.81179461","lon":"-156.1171956","ncei_id":"USC00517194","nws_id":"NA","nesdis_id":"NA","scan_id":"NA","smart_node_rf_id":"NA","dataset":"rfs_11_27_19"},{"skn":"353","name":"Hana AP","observer":"NWS","network":"HydroNet-UaNet","island":"MA","elevation_m":"19","lat":"20.7946","lon":"-156.0157","ncei_id":"USC00511125","nws_id":"HNAH1","nesdis_id":"B150314C","scan_id":"NA","smart_node_rf_id":"NA","dataset":"rfs_11_27_19"},{"skn":"355","name":"HANA AIRPORT 355","observer":"HAWAIIAN AIRLINES","network":"COOP","island":"MA","elevation_m":"24","lat":"20.792","lon":"-156.017","ncei_id":"USC00511125","nws_id":"NA","nesdis_id":"NA","scan_id":"NA","smart_node_rf_id":"NA","dataset":"rfs_11_27_19"},{"skn":"355.2","name":"HONOMAELE 355.2","observer":"COOP","network":"COOP","island":"MA","elevation_m":"104","lat":"20.7939","lon":"-156.0414","ncei_id":"USC00511921","nws_id":"NA","nesdis_id":"NA","scan_id":"NA","smart_node_rf_id":"NA","dataset":"rfs_11_27_19"},{"skn":"361","name":"LAHAINA 361","observer":"COOP","network":"COOP","island":"MA","elevation_m":"78","lat":"20.87679494","lon":"-156.6738405","ncei_id":"USC00515177","nws_id":"NA","nesdis_id":"NA","scan_id":"NA","smart_node_rf_id":"NA","dataset":"rfs_11_27_19"},{"skn":"361.1","name":"Lahainaluna","observer":"NWS","network":"HydroNet-UaNet","island":"MA","elevation_m":"238.0488","lat":"20.8909","lon":"-156.6556","ncei_id":"NA","nws_id":"LAHH1","nesdis_id":"NA","scan_id":"NA","smart_node_rf_id":"NA","dataset":"rfs_11_27_19"},{"skn":"364","name":"WAHIKULI 364","observer":"COOP","network":"COOP","island":"MA","elevation_m":"177","lat":"20.89679257","lon":"-156.6621736","ncei_id":"USC00518955","nws_id":"NA","nesdis_id":"NA","scan_id":"NA","smart_node_rf_id":"NA","dataset":"rfs_11_27_19"},{"skn":"372","name":"LAUNIUPOKO VILLG 372","observer":"COOP","network":"COOP","island":"MA","elevation_m":"76","lat":"20.85179493","lon":"-156.6455071","ncei_id":"USC00515408","nws_id":"NA","nesdis_id":"NA","scan_id":"NA","smart_node_rf_id":"NA","dataset":"rfs_11_27_19"},{"skn":"380","name":"PuuKukuiRainGageatalt","observer":"USGS","network":"USGS","island":"MA","elevation_m":"1759","lat":"20.89083333","lon":"-156.6008333","ncei_id":"USC00514887","nws_id":"PKKH1","nesdis_id":"DD73556E","scan_id":"NA","smart_node_rf_id":"NA","dataset":"rfs_11_27_19"},{"skn":"386","name":"WAILUKU 386","observer":"COOP","network":"COOP","island":"MA","elevation_m":"55","lat":"20.89345755","lon":"-156.4971783","ncei_id":"USC00519484","nws_id":"NA","nesdis_id":"NA","scan_id":"NA","smart_node_rf_id":"NA","dataset":"rfs_11_27_19"},{"skn":"386.6","name":"Wailuku","observer":"NWS","network":"HydroNet-UaNet","island":"MA","elevation_m":"146.9136","lat":"20.8831005","lon":"-156.5124","ncei_id":"NA","nws_id":"WUKH1","nesdis_id":"9321D776","scan_id":"NA","smart_node_rf_id":"NA","dataset":"rfs_11_27_19"},{"skn":"390","name":"WAIKAPU 390","observer":"COOP","network":"COOP","island":"MA","elevation_m":"130","lat":"20.8491","lon":"-156.5092","ncei_id":"USC00519376","nws_id":"NA","nesdis_id":"NA","scan_id":"NA","smart_node_rf_id":"NA","dataset":"rfs_11_27_19"},{"skn":"390.4","name":"Waikapu Country Club","observer":"NWS","network":"HydroNet-UaNet","island":"MA","elevation_m":"145.9992","lat":"20.8346996","lon":"-156.513499999999","ncei_id":"NA","nws_id":"WCCH1","nesdis_id":"9.32E+19","scan_id":"NA","smart_node_rf_id":"NA","dataset":"rfs_11_27_19"},{"skn":"390.5","name":"F747","observer":"HC&S","network":"HC&S","island":"MA","elevation_m":"125","lat":"20.84763533","lon":"-156.505028","ncei_id":"NA","nws_id":"NA","nesdis_id":"NA","scan_id":"NA","smart_node_rf_id":"NA","dataset":"rfs_11_27_19"},{"skn":"391.2","name":"F717","observer":"HC&S","network":"HC&S","island":"MA","elevation_m":"53","lat":"20.85476999","lon":"-156.4578408","ncei_id":"NA","nws_id":"NA","nesdis_id":"NA","scan_id":"NA","smart_node_rf_id":"NA","dataset":"rfs_11_27_19"},{"skn":"393.2","name":"F719","observer":"HC&S","network":"HC&S","island":"MA","elevation_m":"76","lat":"20.84959149","lon":"-156.4820377","ncei_id":"NA","nws_id":"NA","nesdis_id":"NA","scan_id":"NA","smart_node_rf_id":"NA","dataset":"rfs_11_27_19"},{"skn":"394.2","name":"F902","observer":"HC&S","network":"HC&S","island":"MA","elevation_m":"55","lat":"20.83706303","lon":"-156.4693951","ncei_id":"NA","nws_id":"NA","nesdis_id":"NA","scan_id":"NA","smart_node_rf_id":"NA","dataset":"rfs_11_27_19"},{"skn":"396","name":"PUUNENE 396","observer":"COOP","network":"COOP","island":"MA","elevation_m":"18","lat":"20.8717927","lon":"-156.4538466","ncei_id":"USC00518543","nws_id":"NA","nesdis_id":"NA","scan_id":"NA","smart_node_rf_id":"NA","dataset":"rfs_11_27_19"},{"skn":"396.2","name":"F711","observer":"HC&S","network":"HC&S","island":"MA","elevation_m":"44","lat":"20.86912591","lon":"-156.4511897","ncei_id":"NA","nws_id":"NA","nesdis_id":"NA","scan_id":"NA","smart_node_rf_id":"NA","dataset":"rfs_11_27_19"},{"skn":"396.3","name":"F713","observer":"HC&S","network":"HC&S","island":"MA","elevation_m":"48","lat":"20.8699525","lon":"-156.4540587","ncei_id":"NA","nws_id":"NA","nesdis_id":"NA","scan_id":"NA","smart_node_rf_id":"NA","dataset":"rfs_11_27_19"},{"skn":"397.4","name":"F702","observer":"HC&S","network":"HC&S","island":"MA","elevation_m":"91","lat":"20.85716186","lon":"-156.4314098","ncei_id":"NA","nws_id":"NA","nesdis_id":"NA","scan_id":"NA","smart_node_rf_id":"NA","dataset":"rfs_11_27_19"},{"skn":"397.5","name":"F710","observer":"HC&S","network":"HC&S","island":"MA","elevation_m":"150","lat":"20.87780745","lon":"-156.4441986","ncei_id":"NA","nws_id":"NA","nesdis_id":"NA","scan_id":"NA","smart_node_rf_id":"NA","dataset":"rfs_11_27_19"},{"skn":"398","name":"KAHULUI AIRPORT","observer":"NWS","network":"NWS","island":"MA","elevation_m":"12","lat":"20.8887","lon":"-156.41","ncei_id":"USW00022516","nws_id":"HOG","nesdis_id":"NA","scan_id":"NA","smart_node_rf_id":"NA","dataset":"rfs_11_27_19"},{"skn":"400","name":"SPRECKELSVILLE 400","observer":"COOP","network":"COOP","island":"MA","elevation_m":"20","lat":"20.897526","lon":"-156.41427","ncei_id":"USC00518688","nws_id":"NA","nesdis_id":"NA","scan_id":"NA","smart_node_rf_id":"NA","dataset":"rfs_11_27_19"},{"skn":"400.3","name":"F607","observer":"HC&S","network":"HC&S","island":"MA","elevation_m":"49","lat":"20.89402698","lon":"-156.4104194","ncei_id":"NA","nws_id":"NA","nesdis_id":"NA","scan_id":"NA","smart_node_rf_id":"NA","dataset":"rfs_11_27_19"},{"skn":"401.2","name":"F809","observer":"HC&S","network":"HC&S","island":"MA","elevation_m":"107","lat":"20.83524019","lon":"-156.4319358","ncei_id":"NA","nws_id":"NA","nesdis_id":"NA","scan_id":"NA","smart_node_rf_id":"NA","dataset":"rfs_11_27_19"},{"skn":"401.3","name":"F806","observer":"HC&S","network":"HC&S","island":"MA","elevation_m":"469","lat":"20.83874483","lon":"-156.4124556","ncei_id":"NA","nws_id":"NA","nesdis_id":"NA","scan_id":"NA","smart_node_rf_id":"NA","dataset":"rfs_11_27_19"},{"skn":"402.1","name":"F510","observer":"HC&S","network":"HC&S","island":"MA","elevation_m":"124","lat":"20.85981111","lon":"-156.4020622","ncei_id":"NA","nws_id":"NA","nesdis_id":"NA","scan_id":"NA","smart_node_rf_id":"NA","dataset":"rfs_11_27_19"},{"skn":"403.2","name":"F611","observer":"HC&S","network":"HC&S","island":"MA","elevation_m":"54","lat":"20.89534923","lon":"-156.3963662","ncei_id":"NA","nws_id":"NA","nesdis_id":"NA","scan_id":"NA","smart_node_rf_id":"NA","dataset":"rfs_11_27_19"},{"skn":"404.6","name":"F508","observer":"HC&S","network":"HC&S","island":"MA","elevation_m":"120","lat":"20.87524327","lon":"-156.3882089","ncei_id":"NA","nws_id":"NA","nesdis_id":"NA","scan_id":"NA","smart_node_rf_id":"NA","dataset":"rfs_11_27_19"},{"skn":"404.7","name":"F603","observer":"HC&S","network":"HC&S","island":"MA","elevation_m":"82","lat":"20.87685627","lon":"-156.4060842","ncei_id":"NA","nws_id":"NA","nesdis_id":"NA","scan_id":"NA","smart_node_rf_id":"NA","dataset":"rfs_11_27_19"},{"skn":"405.1","name":"F212","observer":"HC&S","network":"HC&S","island":"MA","elevation_m":"84","lat":"20.89634184","lon":"-156.3791104","ncei_id":"NA","nws_id":"NA","nesdis_id":"NA","scan_id":"NA","smart_node_rf_id":"NA","dataset":"rfs_11_27_19"},{"skn":"406","name":"PAIA 406","observer":"COOP","network":"COOP","island":"MA","elevation_m":"50","lat":"20.9051221","lon":"-156.3738494","ncei_id":"USC00517566","nws_id":"NA","nesdis_id":"NA","scan_id":"NA","smart_node_rf_id":"NA","dataset":"rfs_11_27_19"},{"skn":"406.3","name":"F208","observer":"HC&S","network":"HC&S","island":"MA","elevation_m":"71","lat":"20.90699057","lon":"-156.3741158","ncei_id":"NA","nws_id":"NA","nesdis_id":"NA","scan_id":"NA","smart_node_rf_id":"NA","dataset":"rfs_11_27_19"},{"skn":"407.1","name":"F209","observer":"HC&S","network":"HC&S","island":"MA","elevation_m":"153","lat":"20.87564139","lon":"-156.3759149","ncei_id":"NA","nws_id":"NA","nesdis_id":"NA","scan_id":"NA","smart_node_rf_id":"NA","dataset":"rfs_11_27_19"},{"skn":"410","name":"KEAHUA 410","observer":"COOP","network":"COOP","island":"MA","elevation_m":"120","lat":"20.85846016","lon":"-156.3805162","ncei_id":"USC00513910","nws_id":"NA","nesdis_id":"NA","scan_id":"NA","smart_node_rf_id":"NA","dataset":"rfs_11_27_19"},{"skn":"411.1","name":"F311","observer":"HC&S","network":"HC&S","island":"MA","elevation_m":"181","lat":"20.84564409","lon":"-156.3868064","ncei_id":"NA","nws_id":"NA","nesdis_id":"NA","scan_id":"NA","smart_node_rf_id":"NA","dataset":"rfs_11_27_19"},{"skn":"413.2","name":"F205","observer":"HC&S","network":"HC&S","island":"MA","elevation_m":"137","lat":"20.89217282","lon":"-156.3640467","ncei_id":"NA","nws_id":"NA","nesdis_id":"NA","scan_id":"NA","smart_node_rf_id":"NA","dataset":"rfs_11_27_19"},{"skn":"415.1","name":"F306","observer":"HC&S","network":"HC&S","island":"MA","elevation_m":"221","lat":"20.86600756","lon":"-156.3679354","ncei_id":"NA","nws_id":"NA","nesdis_id":"NA","scan_id":"NA","smart_node_rf_id":"NA","dataset":"rfs_11_27_19"},{"skn":"416.1","name":"F102","observer":"HC&S","network":"HC&S","island":"MA","elevation_m":"176","lat":"20.90032024","lon":"-156.3489987","ncei_id":"NA","nws_id":"NA","nesdis_id":"NA","scan_id":"NA","smart_node_rf_id":"NA","dataset":"rfs_11_27_19"},{"skn":"417.1","name":"F201","observer":"HC&S","network":"HC&S","island":"MA","elevation_m":"276","lat":"20.87584239","lon":"-156.3509271","ncei_id":"NA","nws_id":"NA","nesdis_id":"NA","scan_id":"NA","smart_node_rf_id":"NA","dataset":"rfs_11_27_19"},{"skn":"419.1","name":"F301","observer":"HC&S","network":"HC&S","island":"MA","elevation_m":"354","lat":"20.84919845","lon":"-156.3507995","ncei_id":"NA","nws_id":"NA","nesdis_id":"NA","scan_id":"NA","smart_node_rf_id":"NA","dataset":"rfs_11_27_19"},{"skn":"420.1","name":"F307","observer":"HC&S","network":"HC&S","island":"MA","elevation_m":"345","lat":"20.83446023","lon":"-156.3556341","ncei_id":"NA","nws_id":"NA","nesdis_id":"NA","scan_id":"NA","smart_node_rf_id":"NA","dataset":"rfs_11_27_19"},{"skn":"421.4","name":"F116","observer":"HC&S","network":"HC&S","island":"MA","elevation_m":"287","lat":"20.89378893","lon":"-156.3338403","ncei_id":"NA","nws_id":"NA","nesdis_id":"NA","scan_id":"NA","smart_node_rf_id":"NA","dataset":"rfs_11_27_19"},{"skn":"423","name":"HALIIMAILE 423","observer":"COOP","network":"COOP","island":"MA","elevation_m":"326","lat":"20.86679262","lon":"-156.3405177","ncei_id":"USC00511075","nws_id":"NA","nesdis_id":"NA","scan_id":"NA","smart_node_rf_id":"NA","dataset":"rfs_11_27_19"},{"skn":"424.2","name":"F300","observer":"HC&S","network":"HC&S","island":"MA","elevation_m":"336","lat":"20.85869098","lon":"-156.3485662","ncei_id":"NA","nws_id":"NA","nesdis_id":"NA","scan_id":"NA","smart_node_rf_id":"NA","dataset":"rfs_11_27_19"},{"skn":"426.6","name":"Pukalani","observer":"NWS","network":"HydroNet-UaNet","island":"MA","elevation_m":"495.9096","lat":"20.8355007","lon":"-156.3307","ncei_id":"NA","nws_id":"PUKH1","nesdis_id":"15D2B52E","scan_id":"NA","smart_node_rf_id":"NA","dataset":"rfs_11_27_19"},{"skn":"432","name":"HALEAKALA RANCH 432","observer":"COOP","network":"COOP","island":"MA","elevation_m":"564","lat":"20.83346191","lon":"-156.3138527","ncei_id":"USC00510999","nws_id":"NA","nesdis_id":"NA","scan_id":"NA","smart_node_rf_id":"NA","dataset":"rfs_11_27_19"},{"skn":"446","name":"KAILUA 446","observer":"COOP","network":"COOP","island":"MA","elevation_m":"213","lat":"20.89012208","lon":"-156.2121892","ncei_id":"USC00512679","nws_id":"NA","nesdis_id":"NA","scan_id":"NA","smart_node_rf_id":"NA","dataset":"rfs_11_27_19"},{"skn":"457.1","name":"PUUKOLII 457.1","observer":"COOP","network":"COOP","island":"MA","elevation_m":"128","lat":"20.93194","lon":"-156.67611","ncei_id":"USC00518407","nws_id":"NA","nesdis_id":"NA","scan_id":"NA","smart_node_rf_id":"NA","dataset":"rfs_11_27_19"},{"skn":"462.4","name":"KAPALUA W.MAUI AIRPORT 462.4","observer":"NWS","network":"NWS","island":"MA","elevation_m":"73","lat":"20.9625","lon":"-156.6753","ncei_id":"USC00513317","nws_id":"NA","nesdis_id":"NA","scan_id":"NA","smart_node_rf_id":"NA","dataset":"rfs_11_27_19"},{"skn":"465.1","name":"Mahinahina","observer":"NWS","network":"HydroNet-UaNet","island":"MA","elevation_m":"223.1136","lat":"20.9552002","lon":"-156.6562","ncei_id":"NA","nws_id":"MABH1","nesdis_id":"NA","scan_id":"NA","smart_node_rf_id":"NA","dataset":"rfs_11_27_19"},{"skn":"466","name":"MAHINAHINA 466","observer":"COOP","network":"COOP","island":"MA","elevation_m":"257","lat":"20.94678808","lon":"-156.6555055","ncei_id":"USC00515715","nws_id":"NA","nesdis_id":"NA","scan_id":"NA","smart_node_rf_id":"NA","dataset":"rfs_11_27_19"},{"skn":"474","name":"FIELD 46 474","observer":"COOP","network":"COOP","island":"MA","elevation_m":"319","lat":"20.9951177","lon":"-156.6391163","ncei_id":"USC00510541","nws_id":"NA","nesdis_id":"NA","scan_id":"NA","smart_node_rf_id":"NA","dataset":"rfs_11_27_19"},{"skn":"482","name":"WAIHEE VALLEY 482","observer":"COOP","network":"COOP","island":"MA","elevation_m":"91","lat":"20.94012106","lon":"-156.5255102","ncei_id":"USC00519315","nws_id":"NA","nesdis_id":"NA","scan_id":"NA","smart_node_rf_id":"NA","dataset":"rfs_11_27_19"},{"skn":"482.4","name":"KAHAKULOA MAUKA 482","observer":"COOP","network":"COOP","island":"MA","elevation_m":"334","lat":"20.9539","lon":"-156.5342","ncei_id":"USC00512450","nws_id":"NA","nesdis_id":"NA","scan_id":"NA","smart_node_rf_id":"NA","dataset":"rfs_11_27_19"},{"skn":"482.5","name":"Kahakuloa","observer":"NWS","network":"HydroNet-UaNet","island":"MA","elevation_m":"335.28","lat":"20.9540997","lon":"-156.5342","ncei_id":"NA","nws_id":"KHKH1","nesdis_id":"781001B6","scan_id":"NA","smart_node_rf_id":"NA","dataset":"rfs_11_27_19"},{"skn":"484","name":"WAIEHU CAMP 484","observer":"COOP","network":"COOP","island":"MA","elevation_m":"98","lat":"20.91623388","lon":"-156.5088444","ncei_id":"USC00519275","nws_id":"NA","nesdis_id":"NA","scan_id":"NA","smart_node_rf_id":"NA","dataset":"rfs_11_27_19"},{"skn":"485","name":"HAMAKUAPOKO 485","observer":"COOP","network":"COOP","island":"MA","elevation_m":"98","lat":"20.91345401","lon":"-156.3455169","ncei_id":"USC00511086","nws_id":"NA","nesdis_id":"NA","scan_id":"NA","smart_node_rf_id":"NA","dataset":"rfs_11_27_19"},{"skn":"485.5","name":"F105","observer":"HC&S","network":"HC&S","island":"MA","elevation_m":"54","lat":"20.92051345","lon":"-156.3613979","ncei_id":"NA","nws_id":"NA","nesdis_id":"NA","scan_id":"NA","smart_node_rf_id":"NA","dataset":"rfs_11_27_19"},{"skn":"485.6","name":"F119","observer":"HC&S","network":"HC&S","island":"MA","elevation_m":"320","lat":"20.88820671","lon":"-156.329644","ncei_id":"NA","nws_id":"NA","nesdis_id":"NA","scan_id":"NA","smart_node_rf_id":"NA","dataset":"rfs_11_27_19"},{"skn":"486.6","name":"F109","observer":"HC&S","network":"HC&S","island":"MA","elevation_m":"108","lat":"20.92346429","lon":"-156.3401955","ncei_id":"NA","nws_id":"NA","nesdis_id":"NA","scan_id":"NA","smart_node_rf_id":"NA","dataset":"rfs_11_27_19"},{"skn":"486.7","name":"HAIKU 3.2 SE","observer":"CoCoRaHS","network":"CoCoRaHS","island":"MA","elevation_m":"416","lat":"20.92011989","lon":"-156.3071849","ncei_id":"US1HIMI0001","nws_id":"NA","nesdis_id":"NA","scan_id":"NA","smart_node_rf_id":"NA","dataset":"rfs_11_27_19"},{"skn":"489","name":"Haiku","observer":"NWS","network":"HydroNet-UaNet","island":"MA","elevation_m":"99.3648","lat":"20.9288998","lon":"-156.322499999999","ncei_id":"USC00510822","nws_id":"AIKH1","nesdis_id":"50A30568","scan_id":"NA","smart_node_rf_id":"NA","dataset":"rfs_11_27_19"},{"skn":"490.7","name":"KUIAHA 490.7","observer":"COOP","network":"COOP","island":"MA","elevation_m":"341","lat":"20.89306","lon":"-156.30306","ncei_id":"USC00514806","nws_id":"NA","nesdis_id":"NA","scan_id":"NA","smart_node_rf_id":"NA","dataset":"rfs_11_27_19"},{"skn":"492.2","name":"HALEHAKU 492.2","observer":"COOP","network":"COOP","island":"MA","elevation_m":"210","lat":"20.91","lon":"-156.282","ncei_id":"USC00511016","nws_id":"NA","nesdis_id":"NA","scan_id":"NA","smart_node_rf_id":"NA","dataset":"rfs_11_27_19"},{"skn":"493","name":"HONOKOHUA 493","observer":"COOP","network":"COOP","island":"MA","elevation_m":"38","lat":"21.00011804","lon":"-156.655505","ncei_id":"USC00511887","nws_id":"NA","nesdis_id":"NA","scan_id":"NA","smart_node_rf_id":"NA","dataset":"rfs_11_27_19"},{"skn":"494","name":"HONOLUA FIELD 49 494","observer":"COOP","network":"COOP","island":"MA","elevation_m":"61","lat":"21.010978","lon":"-156.633839","ncei_id":"USC00511914","nws_id":"NA","nesdis_id":"NA","scan_id":"NA","smart_node_rf_id":"NA","dataset":"rfs_11_27_19"},{"skn":"497","name":"NAKALELE FIELD 60 497","observer":"COOP","network":"COOP","island":"MA","elevation_m":"104","lat":"21.02511528","lon":"-156.6005068","ncei_id":"USC00516645","nws_id":"NA","nesdis_id":"NA","scan_id":"NA","smart_node_rf_id":"NA","dataset":"rfs_11_27_19"},{"skn":"499.11","name":"LUA MAKIKA","observer":"RAWS","network":"RAWS","island":"KO","elevation_m":"335.28","lat":"20.5625","lon":"-156.56305556","ncei_id":"USR0000HLUA","nws_id":"HLUA","nesdis_id":"NA","scan_id":"NA","smart_node_rf_id":"NA","dataset":"rfs_11_27_19"},{"skn":"499.12","name":"KEALIALALO","observer":"S&PF","network":"RAWS","island":"KO","elevation_m":"251.46","lat":"20.54361111","lon":"-156.64083333","ncei_id":"USR0000HKLL","nws_id":"KLLH1","nesdis_id":"32792006","scan_id":"NA","smart_node_rf_id":"NA","dataset":"rfs_11_27_19"},{"skn":"499.13","name":"HAKIOAWA","observer":"S&PF","network":"RAWS","island":"KO","elevation_m":"365.76","lat":"20.58027778","lon":"-156.57111111","ncei_id":"USR0000HHAI","nws_id":"HKIH1","nesdis_id":"3279159C","scan_id":"NA","smart_node_rf_id":"NA","dataset":"rfs_11_27_19"},{"skn":"499.6","name":"KAHOOLAWE 499.6","observer":"COOP","network":"COOP","island":"KO","elevation_m":"366","lat":"20.55694","lon":"-156.575","ncei_id":"USC00512558","nws_id":"KRTH1","nesdis_id":"15DEF7B8","scan_id":"NA","smart_node_rf_id":"NA","dataset":"rfs_11_27_19"},{"skn":"499.8","name":"HONOKANAI'A","observer":"S&PF","network":"RAWS","island":"KO","elevation_m":"21.336","lat":"20.50888889","lon":"-156.68166667","ncei_id":"USR0000HHON","nws_id":"HKAH1","nesdis_id":"3.28E+05","scan_id":"NA","smart_node_rf_id":"NA","dataset":"rfs_11_27_19"},{"skn":"499.9","name":"KANELOA","observer":"S&PF","network":"RAWS","island":"KO","elevation_m":"248.412","lat":"20.52222222","lon":"-156.56583333","ncei_id":"USR0000HKAN","nws_id":"KAOH1","nesdis_id":"32793370","scan_id":"NA","smart_node_rf_id":"NA","dataset":"rfs_11_27_19"},{"skn":"511","name":"MAUNALOA 511","observer":"COOP","network":"COOP","island":"MO","elevation_m":"314","lat":"21.13348648","lon":"-157.2121842","ncei_id":"USC00516190","nws_id":"NA","nesdis_id":"NA","scan_id":"NA","smart_node_rf_id":"NA","dataset":"rfs_11_27_19"},{"skn":"524","name":"MOLOKAI KAUNAKAKAI MOLOKAI AIRPORT","observer":"NWS","network":"NWS","island":"MO","elevation_m":"141","lat":"21.15514996","lon":"-157.0924625","ncei_id":"USW00022534","nws_id":"HMK","nesdis_id":"NA","scan_id":"NA","smart_node_rf_id":"NA","dataset":"rfs_11_27_19"},{"skn":"533.1","name":"F308","observer":"HC&S","network":"HC&S","island":"MO","elevation_m":"169","lat":"21.13709456","lon":"-157.0257959","ncei_id":"NA","nws_id":"NA","nesdis_id":"NA","scan_id":"NA","smart_node_rf_id":"NA","dataset":"rfs_11_27_19"},{"skn":"536","name":"KAUNAKAKAI 536","observer":"COOP","network":"COOP","island":"MO","elevation_m":"3","lat":"21.08876308","lon":"-157.0216311","ncei_id":"USC00513541","nws_id":"NA","nesdis_id":"NA","scan_id":"NA","smart_node_rf_id":"NA","dataset":"rfs_11_27_19"},{"skn":"536.5","name":"Kaunakakai Mauka","observer":"NWS","network":"HydroNet-UaNet","island":"MO","elevation_m":"28.3464","lat":"21.0946007","lon":"-157.0174","ncei_id":"NA","nws_id":"KACH1","nesdis_id":"50A0F2E2","scan_id":"NA","smart_node_rf_id":"NA","dataset":"rfs_11_27_19"},{"skn":"536.6","name":"KAUNAKAKAI 3.5 ESE","observer":"CoCoRaHS","network":"CoCoRaHS","island":"MO","elevation_m":"13","lat":"21.068","lon":"-156.963","ncei_id":"US1HIMI0002","nws_id":"NA","nesdis_id":"NA","scan_id":"NA","smart_node_rf_id":"NA","dataset":"rfs_11_27_19"},{"skn":"538","name":"MOLOKAI 1","observer":"S&PF","network":"RAWS","island":"MO","elevation_m":"833.0184","lat":"21.115","lon":"-156.9475","ncei_id":"USR0000HMLK","nws_id":"MLKH1","nesdis_id":"487016AC","scan_id":"NA","smart_node_rf_id":"NA","dataset":"rfs_11_27_19"},{"skn":"539","name":"WAIKOLU VALLEY","observer":"S&PF","network":"RAWS","island":"MO","elevation_m":"152.4","lat":"21.14194444","lon":"-156.92222222","ncei_id":"USR0000HWAI","nws_id":"HWAI","nesdis_id":"NA","scan_id":"NA","smart_node_rf_id":"NA","dataset":"rfs_11_27_19"},{"skn":"540.1","name":"WaikoluRaingageatalt900ft","observer":"USGS","network":"USGS","island":"MO","elevation_m":"274.32","lat":"21.14210278","lon":"-156.9188861","ncei_id":"NA","nws_id":"NA","nesdis_id":"NA","scan_id":"NA","smart_node_rf_id":"NA","dataset":"rfs_11_27_19"},{"skn":"541.2","name":"Puu ALII WEST","observer":"RAWS","network":"RAWS","island":"MO","elevation_m":"1159.764","lat":"21.14083333","lon":"-156.9022222","ncei_id":"NA","nws_id":"PAFH1","nesdis_id":"32D6062E","scan_id":"NA","smart_node_rf_id":"NA","dataset":"rfs_11_27_19"},{"skn":"542.1","name":"PUU O HOKU RANCH 542.1","observer":"COOP","network":"COOP","island":"MO","elevation_m":"205","lat":"21.1447","lon":"-156.7329","ncei_id":"USC00518549","nws_id":"NA","nesdis_id":"NA","scan_id":"NA","smart_node_rf_id":"NA","dataset":"rfs_11_27_19"},{"skn":"542.11","name":"Kamalo","observer":"NWS","network":"HydroNet-UaNet","island":"MO","elevation_m":"8.8392","lat":"21.052","lon":"-156.871","ncei_id":"USC00513045","nws_id":"KMLH1","nesdis_id":"NA","scan_id":"NA","smart_node_rf_id":"NA","dataset":"rfs_11_27_19"},{"skn":"542.9","name":"HALAWA VALLEY 542.9","observer":"COOP","network":"COOP","island":"MO","elevation_m":"8","lat":"21.15679405","lon":"-156.737461","ncei_id":"USC00510961","nws_id":"NA","nesdis_id":"NA","scan_id":"NA","smart_node_rf_id":"NA","dataset":"rfs_11_27_19"},{"skn":"550.2","name":"KEPUHI SHERATON 550.2","observer":"COOP","network":"COOP","island":"MO","elevation_m":"33","lat":"21.19265034","lon":"-157.2430152","ncei_id":"USC00514400","nws_id":"NA","nesdis_id":"NA","scan_id":"NA","smart_node_rf_id":"NA","dataset":"rfs_11_27_19"},{"skn":"550.3","name":"MAUNALOA 3.2 NNW","observer":"CoCoRaHS","network":"CoCoRaHS","island":"MO","elevation_m":"93","lat":"21.1804","lon":"-157.2319","ncei_id":"US1HIMI0006","nws_id":"NA","nesdis_id":"NA","scan_id":"NA","smart_node_rf_id":"NA","dataset":"rfs_11_27_19"},{"skn":"551.5","name":"KakaakoRainGagenearMaunaLoa","observer":"USGS","network":"USGS","island":"MO","elevation_m":"115.824","lat":"21.17447222","lon":"-157.2056667","ncei_id":"NA","nws_id":"NA","nesdis_id":"NA","scan_id":"NA","smart_node_rf_id":"NA","dataset":"rfs_11_27_19"},{"skn":"553","name":"MAKAPULAPAI","observer":"NPS","network":"RAWS","island":"MO","elevation_m":"22.86","lat":"21.20333333","lon":"-156.96611111","ncei_id":"USR0000HMAK","nws_id":"MKPH1","nesdis_id":"FA9024CE","scan_id":"NA","smart_node_rf_id":"NA","dataset":"rfs_11_27_19"},{"skn":"563","name":"KALAUPAPA 563","observer":"COOP","network":"COOP","island":"MO","elevation_m":"9","lat":"21.19014673","lon":"-156.9824624","ncei_id":"USC00512896","nws_id":"NA","nesdis_id":"NA","scan_id":"NA","smart_node_rf_id":"NA","dataset":"rfs_11_27_19"},{"skn":"656","name":"LANAI AIRPORT 656","observer":"NWS","network":"NWS","island":"LA","elevation_m":"396.2","lat":"20.7882389","lon":"-156.946639","ncei_id":"USC00515275","nws_id":"NA","nesdis_id":"NA","scan_id":"NA","smart_node_rf_id":"NA","dataset":"rfs_11_27_19"},{"skn":"658","name":"KAUMALAPAU HARBOR 658","observer":"COOP","network":"COOP","island":"LA","elevation_m":"9","lat":"20.78683305","lon":"-156.9905286","ncei_id":"USC00513461","nws_id":"NA","nesdis_id":"NA","scan_id":"NA","smart_node_rf_id":"NA","dataset":"rfs_11_27_19"},{"skn":"672.1","name":"Lanai City","observer":"NWS","network":"HydroNet-UaNet","island":"LA","elevation_m":"498.0432","lat":"20.8262997","lon":"-156.9182","ncei_id":"USC00515286","nws_id":"LANH1","nesdis_id":"NA","scan_id":"NA","smart_node_rf_id":"NA","dataset":"rfs_11_27_19"},{"skn":"676","name":"MALAUEA 676","observer":"COOP","network":"COOP","island":"LA","elevation_m":"346","lat":"20.76184095","lon":"-156.904414","ncei_id":"USC00516012","nws_id":"NA","nesdis_id":"NA","scan_id":"NA","smart_node_rf_id":"NA","dataset":"rfs_11_27_19"},{"skn":"679","name":"LANAI 1","observer":"RAWS","network":"RAWS","island":"LA","elevation_m":"387.096","lat":"20.87333333","lon":"-157.00638889","ncei_id":"USR0000HLAN","nws_id":"LNIH1","nesdis_id":"48702336","scan_id":"NA","smart_node_rf_id":"NA","dataset":"rfs_11_27_19"},{"skn":"702.2","name":"HONOLULU OBSERV 702.2","observer":"COOP","network":"COOP","island":"OA","elevation_m":"2","lat":"21.313926","lon":"-157.999529","ncei_id":"USC00511918","nws_id":"NA","nesdis_id":"NA","scan_id":"NA","smart_node_rf_id":"NA","dataset":"rfs_11_27_19"},{"skn":"702.5","name":"CAMPBELL IND PK 702.5","observer":"COOP","network":"COOP","island":"OA","elevation_m":"3","lat":"21.30572953","lon":"-158.1078106","ncei_id":"USC00510248","nws_id":"NA","nesdis_id":"NA","scan_id":"NA","smart_node_rf_id":"NA","dataset":"rfs_11_27_19"},{"skn":"702.7","name":"Kapolei-Kalaeloa AP","observer":"NWS","network":"NWS","island":"OA","elevation_m":"15","lat":"21.31667","lon":"-158.06667","ncei_id":"USW00022551","nws_id":"HJR","nesdis_id":"NA","scan_id":"NA","smart_node_rf_id":"NA","dataset":"rfs_11_27_19"},{"skn":"702.8","name":"PTWC","observer":"Hydronet","network":"HydroNet-UaNet","island":"OA","elevation_m":"1.524","lat":"21.3150005","lon":"-157.9992","ncei_id":"NA","nws_id":"PTWH1","nesdis_id":"NA","scan_id":"NA","smart_node_rf_id":"NA","dataset":"rfs_11_27_19"},{"skn":"703","name":"HONOLULU INTERNATIONAL AIRPORT","observer":"NWS","network":"NWS","island":"OA","elevation_m":"2.1","lat":"21.324","lon":"-157.9294","ncei_id":"USW00022521","nws_id":"NA","nesdis_id":"NA","scan_id":"NA","smart_node_rf_id":"NA","dataset":"rfs_11_27_19"},{"skn":"703.1","name":"HONOLULU FIRE STATION 703.1","observer":"HI US","network":"COOP","island":"COOP","elevation_m":"OA","lat":"1","lon":"21.3287","ncei_id":"-157.9298","nws_id":"USC00511925","nesdis_id":"NA","scan_id":"NA","smart_node_rf_id":"NA","dataset":"rfs_11_27_19"},{"skn":"705","name":"BERETANIA PUMP STN 705","observer":"COOP","network":"COOP","island":"OA","elevation_m":"6","lat":"21.305169","lon":"-157.8522571","ncei_id":"USC00510211","nws_id":"NA","nesdis_id":"NA","scan_id":"NA","smart_node_rf_id":"NA","dataset":"rfs_11_27_19"},